[{"nombre":"San Andrés","dep":"Archipiélago de San Andrés, Providencia y Santa Catalina","valorRank":1,"valorIndice":3.543224,"encuestado":false,"latitud":12.54311512,"longitud":-81.71762382,"poblacionTotal":43754},{"nombre":"La Chorrera","dep":"Amazonas","valorRank":2,"valorIndice":7.136252,"encuestado":false,"latitud":-1.54622768,"longitud":-71.50212858,"poblacionTotal":2357},{"nombre":"La Pedrera","dep":"Amazonas","valorRank":2,"valorIndice":7.136252,"encuestado":false,"latitud":-1.54622768,"longitud":-71.50212858,"poblacionTotal":3781},{"nombre":"La Victoria","dep":"Amazonas","valorRank":2,"valorIndice":7.136252,"encuestado":false,"latitud":-1.54622768,"longitud":-71.50212858,"poblacionTotal":166},{"nombre":"Mirití - Paraná","dep":"Amazonas","valorRank":2,"valorIndice":7.136252,"encuestado":false,"latitud":-1.54622768,"longitud":-71.50212858,"poblacionTotal":1023},{"nombre":"Puerto Santander","dep":"Amazonas","valorRank":2,"valorIndice":7.136252,"encuestado":false,"latitud":-1.54622768,"longitud":-71.50212858,"poblacionTotal":1450},{"nombre":"Puerto Alegría","dep":"Amazonas","valorRank":2,"valorIndice":7.136252,"encuestado":false,"latitud":-1.54622768,"longitud":-71.50212858,"poblacionTotal":681},{"nombre":"El Encanto","dep":"Amazonas","valorRank":3,"valorIndice":7.180194,"encuestado":false,"latitud":-1.54622768,"longitud":-71.50212858,"poblacionTotal":1885},{"nombre":"Providencia","dep":"Archipiélago de San Andrés, Providencia y Santa Catalina","valorRank":4,"valorIndice":16.31321,"encuestado":false,"latitud":12.54311512,"longitud":-81.71762382,"poblacionTotal":4545},{"nombre":"Tarapacá","dep":"Amazonas","valorRank":5,"valorIndice":17.36025,"encuestado":false,"latitud":-1.54622768,"longitud":-71.50212858,"poblacionTotal":3179},{"nombre":"El Charco","dep":"Nariño","valorRank":6,"valorIndice":22.49577,"encuestado":false,"latitud":1.571094987,"longitud":-77.87020496,"poblacionTotal":21071},{"nombre":"Leticia","dep":"Amazonas","valorRank":7,"valorIndice":22.64653,"encuestado":false,"latitud":-1.54622768,"longitud":-71.50212858,"poblacionTotal":42844},{"nombre":"Albán","dep":"Nariño","valorRank":8,"valorIndice":23.66993,"encuestado":false,"latitud":1.571094987,"longitud":-77.87020496,"poblacionTotal":8197},{"nombre":"Candelaria","dep":"Atlántico","valorRank":9,"valorIndice":25.70221,"encuestado":false,"latitud":10.67700953,"longitud":-74.96521949,"poblacionTotal":15631},{"nombre":"Barranquilla","dep":"Atlántico","valorRank":10,"valorIndice":26.10417,"encuestado":true,"latitud":10.67700953,"longitud":-74.96521949,"poblacionTotal":1120103},{"nombre":"Santa Lucía","dep":"Atlántico","valorRank":11,"valorIndice":26.92156,"encuestado":false,"latitud":10.67700953,"longitud":-74.96521949,"poblacionTotal":12650},{"nombre":"Luruaco","dep":"Atlántico","valorRank":12,"valorIndice":27.25023,"encuestado":false,"latitud":10.67700953,"longitud":-74.96521949,"poblacionTotal":27647},{"nombre":"Manatí","dep":"Atlántico","valorRank":13,"valorIndice":27.49365,"encuestado":false,"latitud":10.67700953,"longitud":-74.96521949,"poblacionTotal":19233},{"nombre":"Ipiales","dep":"Nariño","valorRank":14,"valorIndice":27.62685,"encuestado":false,"latitud":1.571094987,"longitud":-77.87020496,"poblacionTotal":105517},{"nombre":"Suan","dep":"Atlántico","valorRank":15,"valorIndice":28.47275,"encuestado":false,"latitud":10.67700953,"longitud":-74.96521949,"poblacionTotal":11607},{"nombre":"Repelón","dep":"Atlántico","valorRank":16,"valorIndice":28.61028,"encuestado":false,"latitud":10.67700953,"longitud":-74.96521949,"poblacionTotal":25467},{"nombre":"Ponedera","dep":"Atlántico","valorRank":17,"valorIndice":28.91588,"encuestado":false,"latitud":10.67700953,"longitud":-74.96521949,"poblacionTotal":23420},{"nombre":"Campo de la Cruz","dep":"Atlántico","valorRank":18,"valorIndice":29.26326,"encuestado":false,"latitud":10.67700953,"longitud":-74.96521949,"poblacionTotal":22810},{"nombre":"Piojó","dep":"Atlántico","valorRank":19,"valorIndice":30.11822,"encuestado":false,"latitud":10.67700953,"longitud":-74.96521949,"poblacionTotal":5636},{"nombre":"Sabanalarga","dep":"Atlántico","valorRank":20,"valorIndice":30.30003,"encuestado":false,"latitud":10.67700953,"longitud":-74.96521949,"poblacionTotal":92480},{"nombre":"Palmar de Varela","dep":"Atlántico","valorRank":21,"valorIndice":30.31557,"encuestado":false,"latitud":10.67700953,"longitud":-74.96521949,"poblacionTotal":27098},{"nombre":"Baranoa","dep":"Atlántico","valorRank":22,"valorIndice":30.45411,"encuestado":false,"latitud":10.67700953,"longitud":-74.96521949,"poblacionTotal":61527},{"nombre":"Malambo","dep":"Atlántico","valorRank":23,"valorIndice":30.79707,"encuestado":true,"latitud":10.67700953,"longitud":-74.96521949,"poblacionTotal":119920},{"nombre":"Puerto Colombia","dep":"Atlántico","valorRank":24,"valorIndice":31.35148,"encuestado":true,"latitud":10.67700953,"longitud":-74.96521949,"poblacionTotal":47899},{"nombre":"Galapa","dep":"Atlántico","valorRank":25,"valorIndice":31.51988,"encuestado":false,"latitud":10.67700953,"longitud":-74.96521949,"poblacionTotal":55123},{"nombre":"Juan de Acosta","dep":"Atlántico","valorRank":26,"valorIndice":32.1128,"encuestado":false,"latitud":10.67700953,"longitud":-74.96521949,"poblacionTotal":18828},{"nombre":"Pasto","dep":"Nariño","valorRank":27,"valorIndice":33.51859,"encuestado":true,"latitud":1.571094987,"longitud":-77.87020496,"poblacionTotal":352326},{"nombre":"Iles","dep":"Nariño","valorRank":28,"valorIndice":35.0619,"encuestado":false,"latitud":1.571094987,"longitud":-77.87020496,"poblacionTotal":7112},{"nombre":"Cucutilla","dep":"Norte de Santander","valorRank":29,"valorIndice":35.19214,"encuestado":false,"latitud":8.09513751,"longitud":-72.88188297,"poblacionTotal":7648},{"nombre":"La Florida","dep":"Nariño","valorRank":30,"valorIndice":35.33508,"encuestado":false,"latitud":1.571094987,"longitud":-77.87020496,"poblacionTotal":9047},{"nombre":"Sabanagrande","dep":"Atlántico","valorRank":31,"valorIndice":35.68025,"encuestado":false,"latitud":10.67700953,"longitud":-74.96521949,"poblacionTotal":32026},{"nombre":"Berbeo","dep":"Boyacá","valorRank":32,"valorIndice":36.41616,"encuestado":false,"latitud":5.891672889,"longitud":-72.62788054,"poblacionTotal":1453},{"nombre":"Susacón","dep":"Boyacá","valorRank":32,"valorIndice":36.41616,"encuestado":false,"latitud":5.891672889,"longitud":-72.62788054,"poblacionTotal":2555},{"nombre":"Sutatenza","dep":"Boyacá","valorRank":32,"valorIndice":36.41616,"encuestado":false,"latitud":5.891672889,"longitud":-72.62788054,"poblacionTotal":3501},{"nombre":"Almeida","dep":"Boyacá","valorRank":32,"valorIndice":36.41616,"encuestado":false,"latitud":5.891672889,"longitud":-72.62788054,"poblacionTotal":1582},{"nombre":"Soledad","dep":"Atlántico","valorRank":33,"valorIndice":36.63228,"encuestado":false,"latitud":10.67700953,"longitud":-74.96521949,"poblacionTotal":535984},{"nombre":"Usiacurí","dep":"Atlántico","valorRank":34,"valorIndice":36.73929,"encuestado":false,"latitud":10.67700953,"longitud":-74.96521949,"poblacionTotal":9543},{"nombre":"El Peñón","dep":"Santander","valorRank":35,"valorIndice":36.80584,"encuestado":false,"latitud":6.693633184,"longitud":-73.48600894,"poblacionTotal":4097},{"nombre":"Puerto Salgar","dep":"Cundinamarca","valorRank":36,"valorIndice":36.93999,"encuestado":false,"latitud":4.771120716,"longitud":-74.43111092,"poblacionTotal":15019},{"nombre":"Santo Tomás","dep":"Atlántico","valorRank":37,"valorIndice":37.05355,"encuestado":false,"latitud":10.67700953,"longitud":-74.96521949,"poblacionTotal":28693},{"nombre":"Juradó","dep":"Chocó","valorRank":38,"valorIndice":37.06468,"encuestado":false,"latitud":5.397581542,"longitud":-76.942811,"poblacionTotal":4108},{"nombre":"Nariño","dep":"Cundinamarca","valorRank":39,"valorIndice":37.52751,"encuestado":false,"latitud":4.771120716,"longitud":-74.43111092,"poblacionTotal":2101},{"nombre":"Aguada","dep":"Santander","valorRank":40,"valorIndice":37.70012,"encuestado":false,"latitud":6.693633184,"longitud":-73.48600894,"poblacionTotal":1662},{"nombre":"Santa Fé de Antioquia","dep":"Antioquia","valorRank":41,"valorIndice":37.72036,"encuestado":false,"latitud":6.702032125,"longitud":-75.50455704,"poblacionTotal":23216},{"nombre":"Puerto Arica","dep":"Amazonas","valorRank":42,"valorIndice":37.80826,"encuestado":false,"latitud":-1.54622768,"longitud":-71.50212858,"poblacionTotal":794},{"nombre":"Puerto Nariño","dep":"Amazonas","valorRank":42,"valorIndice":37.80826,"encuestado":false,"latitud":-1.54622768,"longitud":-71.50212858,"poblacionTotal":7896},{"nombre":"Policarpa","dep":"Nariño","valorRank":43,"valorIndice":37.85622,"encuestado":false,"latitud":1.571094987,"longitud":-77.87020496,"poblacionTotal":8149},{"nombre":"Guadalupe","dep":"Antioquia","valorRank":44,"valorIndice":38.21851,"encuestado":false,"latitud":6.702032125,"longitud":-75.50455704,"poblacionTotal":5452},{"nombre":"Gualmatán","dep":"Nariño","valorRank":45,"valorIndice":38.34003,"encuestado":false,"latitud":1.571094987,"longitud":-77.87020496,"poblacionTotal":6290},{"nombre":"San Felipe","dep":"Guainía","valorRank":46,"valorIndice":38.43658,"encuestado":false,"latitud":2.727842865,"longitud":-68.81661272,"poblacionTotal":1411},{"nombre":"Cumbitara","dep":"Nariño","valorRank":47,"valorIndice":38.57622,"encuestado":false,"latitud":1.571094987,"longitud":-77.87020496,"poblacionTotal":5096},{"nombre":"Polonuevo","dep":"Atlántico","valorRank":48,"valorIndice":38.64244,"encuestado":false,"latitud":10.67700953,"longitud":-74.96521949,"poblacionTotal":16222},{"nombre":"Villa Caro","dep":"Norte de Santander","valorRank":49,"valorIndice":39.0587,"encuestado":false,"latitud":8.09513751,"longitud":-72.88188297,"poblacionTotal":4602},{"nombre":"Jambaló","dep":"Cauca","valorRank":50,"valorIndice":39.14494,"encuestado":false,"latitud":2.396833887,"longitud":-76.82423283,"poblacionTotal":16353},{"nombre":"Zambrano","dep":"Bolívar","valorRank":51,"valorIndice":39.20242,"encuestado":false,"latitud":8.079796863,"longitud":-74.23514814,"poblacionTotal":11367},{"nombre":"Cácota","dep":"Norte de Santander","valorRank":52,"valorIndice":39.28009,"encuestado":false,"latitud":8.09513751,"longitud":-72.88188297,"poblacionTotal":2733},{"nombre":"La Esperanza","dep":"Norte de Santander","valorRank":53,"valorIndice":39.30674,"encuestado":false,"latitud":8.09513751,"longitud":-72.88188297,"poblacionTotal":11040},{"nombre":"Puerto Santander","dep":"Norte de Santander","valorRank":54,"valorIndice":39.33425,"encuestado":false,"latitud":8.09513751,"longitud":-72.88188297,"poblacionTotal":8139},{"nombre":"Encino","dep":"Santander","valorRank":55,"valorIndice":39.34745,"encuestado":false,"latitud":6.693633184,"longitud":-73.48600894,"poblacionTotal":2334},{"nombre":"Herrán","dep":"Norte de Santander","valorRank":56,"valorIndice":39.36832,"encuestado":false,"latitud":8.09513751,"longitud":-72.88188297,"poblacionTotal":4702},{"nombre":"Vergara","dep":"Cundinamarca","valorRank":57,"valorIndice":39.50021,"encuestado":false,"latitud":4.771120716,"longitud":-74.43111092,"poblacionTotal":6063},{"nombre":"Abriaquí","dep":"Antioquia","valorRank":58,"valorIndice":39.64618,"encuestado":false,"latitud":6.702032125,"longitud":-75.50455704,"poblacionTotal":2159},{"nombre":"Tubará","dep":"Atlántico","valorRank":59,"valorIndice":39.66156,"encuestado":false,"latitud":10.67700953,"longitud":-74.96521949,"poblacionTotal":12718},{"nombre":"Aldana","dep":"Nariño","valorRank":60,"valorIndice":39.72692,"encuestado":false,"latitud":1.571094987,"longitud":-77.87020496,"poblacionTotal":6872},{"nombre":"Inírida","dep":"Guainía","valorRank":61,"valorIndice":40.04652,"encuestado":false,"latitud":2.727842865,"longitud":-68.81661272,"poblacionTotal":30104},{"nombre":"Acandí","dep":"Chocó","valorRank":62,"valorIndice":40.18968,"encuestado":false,"latitud":5.397581542,"longitud":-76.942811,"poblacionTotal":12095},{"nombre":"Alpujarra","dep":"Tolima","valorRank":63,"valorIndice":40.49989,"encuestado":false,"latitud":4.03477252,"longitud":-75.2558271,"poblacionTotal":4091},{"nombre":"Tibú","dep":"Norte de Santander","valorRank":64,"valorIndice":40.57219,"encuestado":false,"latitud":8.09513751,"longitud":-72.88188297,"poblacionTotal":51399},{"nombre":"Sapuyes","dep":"Nariño","valorRank":65,"valorIndice":40.62072,"encuestado":false,"latitud":1.571094987,"longitud":-77.87020496,"poblacionTotal":7041},{"nombre":"Nariño","dep":"Nariño","valorRank":65,"valorIndice":40.62072,"encuestado":false,"latitud":1.571094987,"longitud":-77.87020496,"poblacionTotal":4007},{"nombre":"La Tola","dep":"Nariño","valorRank":65,"valorIndice":40.62072,"encuestado":false,"latitud":1.571094987,"longitud":-77.87020496,"poblacionTotal":5847},{"nombre":"Ospina","dep":"Nariño","valorRank":65,"valorIndice":40.62072,"encuestado":false,"latitud":1.571094987,"longitud":-77.87020496,"poblacionTotal":6488},{"nombre":"Cumaribo","dep":"Vichada","valorRank":66,"valorIndice":40.64322,"encuestado":false,"latitud":4.713557125,"longitud":-69.41400011,"poblacionTotal":43138},{"nombre":"Almaguer","dep":"Cauca","valorRank":67,"valorIndice":40.76854,"encuestado":false,"latitud":2.396833887,"longitud":-76.82423283,"poblacionTotal":16523},{"nombre":"López de Micay","dep":"Cauca","valorRank":68,"valorIndice":41.14758,"encuestado":false,"latitud":2.396833887,"longitud":-76.82423283,"poblacionTotal":15154},{"nombre":"Bucarasica","dep":"Norte de Santander","valorRank":69,"valorIndice":41.19835,"encuestado":false,"latitud":8.09513751,"longitud":-72.88188297,"poblacionTotal":4698},{"nombre":"Lloró","dep":"Chocó","valorRank":70,"valorIndice":41.23134,"encuestado":false,"latitud":5.397581542,"longitud":-76.942811,"poblacionTotal":8928},{"nombre":"Ábrego","dep":"Norte de Santander","valorRank":71,"valorIndice":41.47007,"encuestado":false,"latitud":8.09513751,"longitud":-72.88188297,"poblacionTotal":30191},{"nombre":"Samaniego","dep":"Nariño","valorRank":72,"valorIndice":41.48806,"encuestado":false,"latitud":1.571094987,"longitud":-77.87020496,"poblacionTotal":23727},{"nombre":"Armenia","dep":"Antioquia","valorRank":73,"valorIndice":41.58409,"encuestado":false,"latitud":6.702032125,"longitud":-75.50455704,"poblacionTotal":3819},{"nombre":"El Rosario","dep":"Nariño","valorRank":74,"valorIndice":42.00018,"encuestado":false,"latitud":1.571094987,"longitud":-77.87020496,"poblacionTotal":6498},{"nombre":"Cúcuta","dep":"Norte de Santander","valorRank":75,"valorIndice":42.03095,"encuestado":true,"latitud":8.09513751,"longitud":-72.88188297,"poblacionTotal":629414},{"nombre":"Sucre","dep":"Cauca","valorRank":76,"valorIndice":42.05787,"encuestado":false,"latitud":2.396833887,"longitud":-76.82423283,"poblacionTotal":6201},{"nombre":"Cabrera","dep":"Cundinamarca","valorRank":77,"valorIndice":42.14761,"encuestado":false,"latitud":4.771120716,"longitud":-74.43111092,"poblacionTotal":4512},{"nombre":"San Francisco","dep":"Antioquia","valorRank":78,"valorIndice":42.32195,"encuestado":false,"latitud":6.702032125,"longitud":-75.50455704,"poblacionTotal":5365},{"nombre":"Bogotá, D.C.","dep":"Bogotá, D.C.","valorRank":79,"valorIndice":42.76435,"encuestado":true,"latitud":4.316107698,"longitud":-74.1810727,"poblacionTotal":7181469},{"nombre":"Susa","dep":"Cundinamarca","valorRank":80,"valorIndice":43.22643,"encuestado":false,"latitud":4.771120716,"longitud":-74.43111092,"poblacionTotal":6073},{"nombre":"Paime","dep":"Cundinamarca","valorRank":81,"valorIndice":43.28936,"encuestado":false,"latitud":4.771120716,"longitud":-74.43111092,"poblacionTotal":3865},{"nombre":"El Calvario","dep":"Meta","valorRank":82,"valorIndice":43.46687,"encuestado":false,"latitud":3.345562732,"longitud":-72.95645988,"poblacionTotal":1575},{"nombre":"Cacahual","dep":"Guainía","valorRank":83,"valorIndice":43.60355,"encuestado":false,"latitud":2.727842865,"longitud":-68.81661272,"poblacionTotal":839},{"nombre":"Bajo Baudó","dep":"Chocó","valorRank":84,"valorIndice":43.6123,"encuestado":false,"latitud":5.397581542,"longitud":-76.942811,"poblacionTotal":18561},{"nombre":"San Sebastián","dep":"Cauca","valorRank":85,"valorIndice":43.64674,"encuestado":false,"latitud":2.396833887,"longitud":-76.82423283,"poblacionTotal":9806},{"nombre":"Mutiscua","dep":"Norte de Santander","valorRank":86,"valorIndice":43.66502,"encuestado":false,"latitud":8.09513751,"longitud":-72.88188297,"poblacionTotal":3891},{"nombre":"Onzaga","dep":"Santander","valorRank":87,"valorIndice":43.7045,"encuestado":false,"latitud":6.693633184,"longitud":-73.48600894,"poblacionTotal":3955},{"nombre":"El Tarra","dep":"Norte de Santander","valorRank":88,"valorIndice":43.85535,"encuestado":false,"latitud":8.09513751,"longitud":-72.88188297,"poblacionTotal":19075},{"nombre":"Abejorral","dep":"Antioquia","valorRank":89,"valorIndice":43.87349,"encuestado":false,"latitud":6.702032125,"longitud":-75.50455704,"poblacionTotal":17599},{"nombre":"Condoto","dep":"Chocó","valorRank":90,"valorIndice":44.00912,"encuestado":false,"latitud":5.397581542,"longitud":-76.942811,"poblacionTotal":12251},{"nombre":"Santander de Quilichao","dep":"Cauca","valorRank":91,"valorIndice":44.09692,"encuestado":false,"latitud":2.396833887,"longitud":-76.82423283,"poblacionTotal":96032},{"nombre":"Santa Rosa","dep":"Cauca","valorRank":91,"valorIndice":44.09692,"encuestado":false,"latitud":2.396833887,"longitud":-76.82423283,"poblacionTotal":5045},{"nombre":"Caicedo","dep":"Antioquia","valorRank":92,"valorIndice":44.21148,"encuestado":false,"latitud":6.702032125,"longitud":-75.50455704,"poblacionTotal":7018},{"nombre":"Imués","dep":"Nariño","valorRank":93,"valorIndice":44.22339,"encuestado":false,"latitud":1.571094987,"longitud":-77.87020496,"poblacionTotal":6351},{"nombre":"Ubaque","dep":"Cundinamarca","valorRank":94,"valorIndice":44.46019,"encuestado":false,"latitud":4.771120716,"longitud":-74.43111092,"poblacionTotal":6390},{"nombre":"Jerusalén","dep":"Cundinamarca","valorRank":95,"valorIndice":44.67931,"encuestado":false,"latitud":4.771120716,"longitud":-74.43111092,"poblacionTotal":2025},{"nombre":"Labateca","dep":"Norte de Santander","valorRank":96,"valorIndice":44.70385,"encuestado":false,"latitud":8.09513751,"longitud":-72.88188297,"poblacionTotal":5550},{"nombre":"Pamplonita","dep":"Norte de Santander","valorRank":97,"valorIndice":44.80743,"encuestado":false,"latitud":8.09513751,"longitud":-72.88188297,"poblacionTotal":4944},{"nombre":"Barrancominas","dep":"Guainía","valorRank":98,"valorIndice":44.83377,"encuestado":false,"latitud":2.727842865,"longitud":-68.81661272,"poblacionTotal":7207},{"nombre":"Chinavita","dep":"Boyacá","valorRank":99,"valorIndice":44.88384,"encuestado":false,"latitud":5.891672889,"longitud":-72.62788054,"poblacionTotal":2842},{"nombre":"Betania","dep":"Antioquia","valorRank":100,"valorIndice":44.92908,"encuestado":false,"latitud":6.702032125,"longitud":-75.50455704,"poblacionTotal":8589},{"nombre":"Bolívar","dep":"Santander","valorRank":101,"valorIndice":45.14695,"encuestado":false,"latitud":6.693633184,"longitud":-73.48600894,"poblacionTotal":9567},{"nombre":"Bahía Solano","dep":"Chocó","valorRank":102,"valorIndice":45.39801,"encuestado":false,"latitud":5.397581542,"longitud":-76.942811,"poblacionTotal":9417},{"nombre":"Ragonvalia","dep":"Norte de Santander","valorRank":103,"valorIndice":45.47235,"encuestado":false,"latitud":8.09513751,"longitud":-72.88188297,"poblacionTotal":5420},{"nombre":"Cáchira","dep":"Norte de Santander","valorRank":104,"valorIndice":45.4989,"encuestado":false,"latitud":8.09513751,"longitud":-72.88188297,"poblacionTotal":8642},{"nombre":"Quibdó","dep":"Chocó","valorRank":105,"valorIndice":45.62263,"encuestado":false,"latitud":5.397581542,"longitud":-76.942811,"poblacionTotal":120679},{"nombre":"San José de la Montaña","dep":"Antioquia","valorRank":106,"valorIndice":45.64235,"encuestado":false,"latitud":6.702032125,"longitud":-75.50455704,"poblacionTotal":2952},{"nombre":"Coromoro","dep":"Santander","valorRank":107,"valorIndice":45.70148,"encuestado":false,"latitud":6.693633184,"longitud":-73.48600894,"poblacionTotal":4816},{"nombre":"Buenavista","dep":"Boyacá","valorRank":108,"valorIndice":45.73962,"encuestado":false,"latitud":5.891672889,"longitud":-72.62788054,"poblacionTotal":4240},{"nombre":"Chinácota","dep":"Norte de Santander","valorRank":109,"valorIndice":45.77881,"encuestado":false,"latitud":8.09513751,"longitud":-72.88188297,"poblacionTotal":16021},{"nombre":"Tibaná","dep":"Boyacá","valorRank":110,"valorIndice":46.154,"encuestado":false,"latitud":5.891672889,"longitud":-72.62788054,"poblacionTotal":7966},{"nombre":"Gachetá","dep":"Cundinamarca","valorRank":111,"valorIndice":46.30283,"encuestado":false,"latitud":4.771120716,"longitud":-74.43111092,"poblacionTotal":8203},{"nombre":"Albania","dep":"Santander","valorRank":112,"valorIndice":46.46397,"encuestado":false,"latitud":6.693633184,"longitud":-73.48600894,"poblacionTotal":3317},{"nombre":"Cumbal","dep":"Nariño","valorRank":113,"valorIndice":46.53533,"encuestado":false,"latitud":1.571094987,"longitud":-77.87020496,"poblacionTotal":32672},{"nombre":"La Playa","dep":"Norte de Santander","valorRank":114,"valorIndice":46.60377,"encuestado":false,"latitud":8.09513751,"longitud":-72.88188297,"poblacionTotal":7237},{"nombre":"Villa del Rosario","dep":"Norte de Santander","valorRank":115,"valorIndice":46.74893,"encuestado":false,"latitud":8.09513751,"longitud":-72.88188297,"poblacionTotal":93735},{"nombre":"Teorama","dep":"Norte de Santander","valorRank":116,"valorIndice":46.76394,"encuestado":false,"latitud":8.09513751,"longitud":-72.88188297,"poblacionTotal":12727},{"nombre":"El Peñón","dep":"Cundinamarca","valorRank":117,"valorIndice":46.76424,"encuestado":false,"latitud":4.771120716,"longitud":-74.43111092,"poblacionTotal":3458},{"nombre":"Quípama","dep":"Boyacá","valorRank":118,"valorIndice":47.06692,"encuestado":false,"latitud":5.891672889,"longitud":-72.62788054,"poblacionTotal":4194},{"nombre":"Tenza","dep":"Boyacá","valorRank":119,"valorIndice":47.23598,"encuestado":false,"latitud":5.891672889,"longitud":-72.62788054,"poblacionTotal":3461},{"nombre":"Cuaspud Carlosama","dep":"Nariño","valorRank":120,"valorIndice":47.35486,"encuestado":false,"latitud":1.571094987,"longitud":-77.87020496,"poblacionTotal":8975},{"nombre":"Santo Domingo","dep":"Antioquia","valorRank":121,"valorIndice":47.3753,"encuestado":false,"latitud":6.702032125,"longitud":-75.50455704,"poblacionTotal":9786},{"nombre":"Agua de Dios","dep":"Cundinamarca","valorRank":122,"valorIndice":47.50998,"encuestado":false,"latitud":4.771120716,"longitud":-74.43111092,"poblacionTotal":10742},{"nombre":"La Unión","dep":"Nariño","valorRank":123,"valorIndice":47.52214,"encuestado":false,"latitud":1.571094987,"longitud":-77.87020496,"poblacionTotal":28659},{"nombre":"Bojacá","dep":"Cundinamarca","valorRank":124,"valorIndice":47.58369,"encuestado":false,"latitud":4.771120716,"longitud":-74.43111092,"poblacionTotal":9674},{"nombre":"Timbiquí","dep":"Cauca","valorRank":125,"valorIndice":47.70392,"encuestado":false,"latitud":2.396833887,"longitud":-76.82423283,"poblacionTotal":21618},{"nombre":"Manta","dep":"Cundinamarca","valorRank":126,"valorIndice":47.72949,"encuestado":false,"latitud":4.771120716,"longitud":-74.43111092,"poblacionTotal":3354},{"nombre":"Ricaurte","dep":"Nariño","valorRank":127,"valorIndice":47.76462,"encuestado":false,"latitud":1.571094987,"longitud":-77.87020496,"poblacionTotal":18067},{"nombre":"Gramalote","dep":"Norte de Santander","valorRank":128,"valorIndice":48.03782,"encuestado":false,"latitud":8.09513751,"longitud":-72.88188297,"poblacionTotal":6408},{"nombre":"Santacruz","dep":"Nariño","valorRank":129,"valorIndice":48.04831,"encuestado":false,"latitud":1.571094987,"longitud":-77.87020496,"poblacionTotal":9869},{"nombre":"Arboleda","dep":"Nariño","valorRank":129,"valorIndice":48.04831,"encuestado":false,"latitud":1.571094987,"longitud":-77.87020496,"poblacionTotal":7626},{"nombre":"El Tambo","dep":"Nariño","valorRank":129,"valorIndice":48.04831,"encuestado":false,"latitud":1.571094987,"longitud":-77.87020496,"poblacionTotal":12457},{"nombre":"La Llanada","dep":"Nariño","valorRank":130,"valorIndice":48.06512,"encuestado":false,"latitud":1.571094987,"longitud":-77.87020496,"poblacionTotal":5321},{"nombre":"Lourdes","dep":"Norte de Santander","valorRank":131,"valorIndice":48.17765,"encuestado":false,"latitud":8.09513751,"longitud":-72.88188297,"poblacionTotal":3609},{"nombre":"Quipile","dep":"Cundinamarca","valorRank":132,"valorIndice":48.23693,"encuestado":false,"latitud":4.771120716,"longitud":-74.43111092,"poblacionTotal":6114},{"nombre":"Hacarí","dep":"Norte de Santander","valorRank":133,"valorIndice":48.31967,"encuestado":false,"latitud":8.09513751,"longitud":-72.88188297,"poblacionTotal":9745},{"nombre":"Pamplona","dep":"Norte de Santander","valorRank":134,"valorIndice":48.32582,"encuestado":false,"latitud":8.09513751,"longitud":-72.88188297,"poblacionTotal":45521},{"nombre":"Guachucal","dep":"Nariño","valorRank":135,"valorIndice":48.35651,"encuestado":false,"latitud":1.571094987,"longitud":-77.87020496,"poblacionTotal":18845},{"nombre":"Olaya","dep":"Antioquia","valorRank":136,"valorIndice":48.36372,"encuestado":false,"latitud":6.702032125,"longitud":-75.50455704,"poblacionTotal":2719},{"nombre":"San Mateo","dep":"Boyacá","valorRank":137,"valorIndice":48.58846,"encuestado":false,"latitud":5.891672889,"longitud":-72.62788054,"poblacionTotal":3307},{"nombre":"Coper","dep":"Boyacá","valorRank":137,"valorIndice":48.58846,"encuestado":false,"latitud":5.891672889,"longitud":-72.62788054,"poblacionTotal":3019},{"nombre":"Sativasur","dep":"Boyacá","valorRank":137,"valorIndice":48.58846,"encuestado":false,"latitud":5.891672889,"longitud":-72.62788054,"poblacionTotal":1048},{"nombre":"Puerto Carreño","dep":"Vichada","valorRank":138,"valorIndice":48.63044,"encuestado":false,"latitud":4.713557125,"longitud":-69.41400011,"poblacionTotal":19788},{"nombre":"Toledo","dep":"Norte de Santander","valorRank":139,"valorIndice":48.76213,"encuestado":false,"latitud":8.09513751,"longitud":-72.88188297,"poblacionTotal":14962},{"nombre":"Chitagá","dep":"Norte de Santander","valorRank":140,"valorIndice":48.86903,"encuestado":false,"latitud":8.09513751,"longitud":-72.88188297,"poblacionTotal":10554},{"nombre":"Sabanalarga","dep":"Antioquia","valorRank":141,"valorIndice":48.89859,"encuestado":false,"latitud":6.702032125,"longitud":-75.50455704,"poblacionTotal":7833},{"nombre":"San Fernando","dep":"Bolívar","valorRank":142,"valorIndice":48.92151,"encuestado":false,"latitud":8.079796863,"longitud":-74.23514814,"poblacionTotal":9776},{"nombre":"Bituima","dep":"Cundinamarca","valorRank":143,"valorIndice":48.9981,"encuestado":false,"latitud":4.771120716,"longitud":-74.43111092,"poblacionTotal":2224},{"nombre":"Silos","dep":"Norte de Santander","valorRank":144,"valorIndice":49.03382,"encuestado":false,"latitud":8.09513751,"longitud":-72.88188297,"poblacionTotal":5713},{"nombre":"Istmina","dep":"Chocó","valorRank":145,"valorIndice":49.29411,"encuestado":false,"latitud":5.397581542,"longitud":-76.942811,"poblacionTotal":28087},{"nombre":"Sardinata","dep":"Norte de Santander","valorRank":146,"valorIndice":49.38679,"encuestado":false,"latitud":8.09513751,"longitud":-72.88188297,"poblacionTotal":21243},{"nombre":"Unguía","dep":"Chocó","valorRank":147,"valorIndice":49.56468,"encuestado":false,"latitud":5.397581542,"longitud":-76.942811,"poblacionTotal":12192},{"nombre":"Nuquí","dep":"Chocó","valorRank":147,"valorIndice":49.56468,"encuestado":false,"latitud":5.397581542,"longitud":-76.942811,"poblacionTotal":3456},{"nombre":"Solita","dep":"Caquetá","valorRank":148,"valorIndice":49.60508,"encuestado":false,"latitud":0.798556195,"longitud":-73.95946756,"poblacionTotal":5431},{"nombre":"Tibirita","dep":"Cundinamarca","valorRank":149,"valorIndice":49.68315,"encuestado":false,"latitud":4.771120716,"longitud":-74.43111092,"poblacionTotal":2439},{"nombre":"Albán","dep":"Cundinamarca","valorRank":150,"valorIndice":49.89164,"encuestado":false,"latitud":4.771120716,"longitud":-74.43111092,"poblacionTotal":6136},{"nombre":"Chima","dep":"Santander","valorRank":151,"valorIndice":50.08576,"encuestado":false,"latitud":6.693633184,"longitud":-73.48600894,"poblacionTotal":2364},{"nombre":"Cravo Norte","dep":"Arauca","valorRank":152,"valorIndice":50.30394,"encuestado":false,"latitud":6.569577215,"longitud":-70.96732394,"poblacionTotal":3644},{"nombre":"Santa Sofía","dep":"Boyacá","valorRank":153,"valorIndice":50.30731,"encuestado":false,"latitud":5.891672889,"longitud":-72.62788054,"poblacionTotal":2959},{"nombre":"Arauca","dep":"Arauca","valorRank":154,"valorIndice":50.3135,"encuestado":false,"latitud":6.569577215,"longitud":-70.96732394,"poblacionTotal":75735},{"nombre":"Río de Oro","dep":"Cesar","valorRank":155,"valorIndice":50.41255,"encuestado":false,"latitud":9.53665993,"longitud":-73.51783154,"poblacionTotal":14408},{"nombre":"Yacopí","dep":"Cundinamarca","valorRank":156,"valorIndice":50.50187,"encuestado":false,"latitud":4.771120716,"longitud":-74.43111092,"poblacionTotal":10887},{"nombre":"Olaya Herrera","dep":"Nariño","valorRank":157,"valorIndice":50.57444,"encuestado":false,"latitud":1.571094987,"longitud":-77.87020496,"poblacionTotal":21415},{"nombre":"Riosucio","dep":"Chocó","valorRank":158,"valorIndice":50.71238,"encuestado":false,"latitud":5.397581542,"longitud":-76.942811,"poblacionTotal":48257},{"nombre":"Santiago","dep":"Norte de Santander","valorRank":159,"valorIndice":50.71566,"encuestado":false,"latitud":8.09513751,"longitud":-72.88188297,"poblacionTotal":3087},{"nombre":"Tona","dep":"Santander","valorRank":160,"valorIndice":50.99474,"encuestado":false,"latitud":6.693633184,"longitud":-73.48600894,"poblacionTotal":6680},{"nombre":"San José de Miranda","dep":"Santander","valorRank":161,"valorIndice":51.00896,"encuestado":false,"latitud":6.693633184,"longitud":-73.48600894,"poblacionTotal":4153},{"nombre":"Convención","dep":"Norte de Santander","valorRank":162,"valorIndice":51.01114,"encuestado":false,"latitud":8.09513751,"longitud":-72.88188297,"poblacionTotal":18112},{"nombre":"Maripí","dep":"Boyacá","valorRank":163,"valorIndice":51.02292,"encuestado":false,"latitud":5.891672889,"longitud":-72.62788054,"poblacionTotal":5354},{"nombre":"Fortul","dep":"Arauca","valorRank":164,"valorIndice":51.06499,"encuestado":false,"latitud":6.569577215,"longitud":-70.96732394,"poblacionTotal":17492},{"nombre":"Bojayá","dep":"Chocó","valorRank":165,"valorIndice":51.07983,"encuestado":false,"latitud":5.397581542,"longitud":-76.942811,"poblacionTotal":11933},{"nombre":"Arboledas","dep":"Norte de Santander","valorRank":166,"valorIndice":51.2777,"encuestado":false,"latitud":8.09513751,"longitud":-72.88188297,"poblacionTotal":8202},{"nombre":"San Miguel","dep":"Santander","valorRank":167,"valorIndice":51.42011,"encuestado":false,"latitud":6.693633184,"longitud":-73.48600894,"poblacionTotal":2433},{"nombre":"Zipacón","dep":"Cundinamarca","valorRank":168,"valorIndice":51.44985,"encuestado":false,"latitud":4.771120716,"longitud":-74.43111092,"poblacionTotal":4211},{"nombre":"Los Patios","dep":"Norte de Santander","valorRank":169,"valorIndice":51.55128,"encuestado":true,"latitud":8.09513751,"longitud":-72.88188297,"poblacionTotal":81411},{"nombre":"San Joaquín","dep":"Santander","valorRank":170,"valorIndice":51.6645,"encuestado":false,"latitud":6.693633184,"longitud":-73.48600894,"poblacionTotal":2167},{"nombre":"Sáchica","dep":"Boyacá","valorRank":171,"valorIndice":51.9535,"encuestado":false,"latitud":5.891672889,"longitud":-72.62788054,"poblacionTotal":4823},{"nombre":"Pulí","dep":"Cundinamarca","valorRank":172,"valorIndice":51.97657,"encuestado":false,"latitud":4.771120716,"longitud":-74.43111092,"poblacionTotal":2525},{"nombre":"El Zulia","dep":"Norte de Santander","valorRank":173,"valorIndice":52.15162,"encuestado":false,"latitud":8.09513751,"longitud":-72.88188297,"poblacionTotal":26019},{"nombre":"Santa Ana","dep":"Magdalena","valorRank":174,"valorIndice":52.15352,"encuestado":false,"latitud":10.24738355,"longitud":-74.26175733,"poblacionTotal":22723},{"nombre":"Bochalema","dep":"Norte de Santander","valorRank":175,"valorIndice":52.3278,"encuestado":false,"latitud":8.09513751,"longitud":-72.88188297,"poblacionTotal":6972},{"nombre":"San Calixto","dep":"Norte de Santander","valorRank":176,"valorIndice":52.33022,"encuestado":false,"latitud":8.09513751,"longitud":-72.88188297,"poblacionTotal":9961},{"nombre":"Mosquera","dep":"Nariño","valorRank":177,"valorIndice":52.3631,"encuestado":false,"latitud":1.571094987,"longitud":-77.87020496,"poblacionTotal":10206},{"nombre":"Zapayán","dep":"Magdalena","valorRank":178,"valorIndice":52.36726,"encuestado":false,"latitud":10.24738355,"longitud":-74.26175733,"poblacionTotal":8606},{"nombre":"Unión Panamericana","dep":"Chocó","valorRank":179,"valorIndice":52.48564,"encuestado":false,"latitud":5.397581542,"longitud":-76.942811,"poblacionTotal":6590},{"nombre":"Santa Bárbara de Pinto","dep":"Magdalena","valorRank":180,"valorIndice":52.49065,"encuestado":false,"latitud":10.24738355,"longitud":-74.26175733,"poblacionTotal":9345},{"nombre":"Toledo","dep":"Antioquia","valorRank":181,"valorIndice":52.57911,"encuestado":false,"latitud":6.702032125,"longitud":-75.50455704,"poblacionTotal":4930},{"nombre":"El Molino","dep":"La Guajira","valorRank":182,"valorIndice":52.632,"encuestado":false,"latitud":11.47687008,"longitud":-72.42951072,"poblacionTotal":6963},{"nombre":"La Peña","dep":"Cundinamarca","valorRank":183,"valorIndice":52.64198,"encuestado":false,"latitud":4.771120716,"longitud":-74.43111092,"poblacionTotal":5429},{"nombre":"Cerro de San Antonio","dep":"Magdalena","valorRank":184,"valorIndice":52.67124,"encuestado":false,"latitud":10.24738355,"longitud":-74.26175733,"poblacionTotal":9225},{"nombre":"El Retorno","dep":"Guaviare","valorRank":185,"valorIndice":52.75474,"encuestado":false,"latitud":1.924531973,"longitud":-72.12859569,"poblacionTotal":11340},{"nombre":"Chachagüí","dep":"Nariño","valorRank":186,"valorIndice":52.76376,"encuestado":false,"latitud":1.571094987,"longitud":-77.87020496,"poblacionTotal":12419},{"nombre":"Belén","dep":"Nariño","valorRank":186,"valorIndice":52.76376,"encuestado":false,"latitud":1.571094987,"longitud":-77.87020496,"poblacionTotal":5968},{"nombre":"Tangua","dep":"Nariño","valorRank":187,"valorIndice":52.88008,"encuestado":false,"latitud":1.571094987,"longitud":-77.87020496,"poblacionTotal":10331},{"nombre":"Támara","dep":"Casanare","valorRank":188,"valorIndice":52.8894,"encuestado":false,"latitud":5.404064237,"longitud":-71.60188073,"poblacionTotal":6317},{"nombre":"El Litoral del San Juan","dep":"Chocó","valorRank":189,"valorIndice":52.89801,"encuestado":false,"latitud":5.397581542,"longitud":-76.942811,"poblacionTotal":11579},{"nombre":"Soatá","dep":"Boyacá","valorRank":190,"valorIndice":52.96727,"encuestado":false,"latitud":5.891672889,"longitud":-72.62788054,"poblacionTotal":8538},{"nombre":"Tame","dep":"Arauca","valorRank":191,"valorIndice":53.03018,"encuestado":false,"latitud":6.569577215,"longitud":-70.96732394,"poblacionTotal":40311},{"nombre":"Suratá","dep":"Santander","valorRank":192,"valorIndice":53.12943,"encuestado":false,"latitud":6.693633184,"longitud":-73.48600894,"poblacionTotal":3520},{"nombre":"Cartagena del Chairá","dep":"Caquetá","valorRank":193,"valorIndice":53.14281,"encuestado":false,"latitud":0.798556195,"longitud":-73.95946756,"poblacionTotal":27939},{"nombre":"Chiquinquirá","dep":"Boyacá","valorRank":194,"valorIndice":53.31026,"encuestado":false,"latitud":5.891672889,"longitud":-72.62788054,"poblacionTotal":52321},{"nombre":"Ancuya","dep":"Nariño","valorRank":195,"valorIndice":53.36475,"encuestado":false,"latitud":1.571094987,"longitud":-77.87020496,"poblacionTotal":7481},{"nombre":"Pijiño del Carmen","dep":"Magdalena","valorRank":196,"valorIndice":53.3807,"encuestado":false,"latitud":10.24738355,"longitud":-74.26175733,"poblacionTotal":11071},{"nombre":"Chía","dep":"Cundinamarca","valorRank":197,"valorIndice":53.39785,"encuestado":false,"latitud":4.771120716,"longitud":-74.43111092,"poblacionTotal":129613},{"nombre":"La Primavera","dep":"Vichada","valorRank":198,"valorIndice":53.41362,"encuestado":false,"latitud":4.713557125,"longitud":-69.41400011,"poblacionTotal":9690},{"nombre":"Cachipay","dep":"Cundinamarca","valorRank":199,"valorIndice":53.43786,"encuestado":false,"latitud":4.771120716,"longitud":-74.43111092,"poblacionTotal":9274},{"nombre":"Villanueva","dep":"La Guajira","valorRank":200,"valorIndice":53.45912,"encuestado":false,"latitud":11.47687008,"longitud":-72.42951072,"poblacionTotal":24996},{"nombre":"San Andrés de Sotavento","dep":"Córdoba","valorRank":201,"valorIndice":53.49802,"encuestado":false,"latitud":8.358549754,"longitud":-75.79200872,"poblacionTotal":42046},{"nombre":"Ciénega","dep":"Boyacá","valorRank":202,"valorIndice":53.60058,"encuestado":false,"latitud":5.891672889,"longitud":-72.62788054,"poblacionTotal":4492},{"nombre":"Anapoima","dep":"Cundinamarca","valorRank":203,"valorIndice":53.62976,"encuestado":false,"latitud":4.771120716,"longitud":-74.43111092,"poblacionTotal":12241},{"nombre":"Ocaña","dep":"Norte de Santander","valorRank":204,"valorIndice":53.67002,"encuestado":true,"latitud":8.09513751,"longitud":-72.88188297,"poblacionTotal":111643},{"nombre":"Briceño","dep":"Boyacá","valorRank":205,"valorIndice":53.69297,"encuestado":false,"latitud":5.891672889,"longitud":-72.62788054,"poblacionTotal":2054},{"nombre":"Durania","dep":"Norte de Santander","valorRank":206,"valorIndice":53.73791,"encuestado":false,"latitud":8.09513751,"longitud":-72.88188297,"poblacionTotal":4390},{"nombre":"Mosquera","dep":"Cundinamarca","valorRank":207,"valorIndice":53.76427,"encuestado":false,"latitud":4.771120716,"longitud":-74.43111092,"poblacionTotal":128893},{"nombre":"Hatonuevo","dep":"La Guajira","valorRank":208,"valorIndice":53.77658,"encuestado":false,"latitud":11.47687008,"longitud":-72.42951072,"poblacionTotal":17672},{"nombre":"Molagavita","dep":"Santander","valorRank":209,"valorIndice":53.84959,"encuestado":false,"latitud":6.693633184,"longitud":-73.48600894,"poblacionTotal":3915},{"nombre":"San Cayetano","dep":"Norte de Santander","valorRank":210,"valorIndice":53.85247,"encuestado":false,"latitud":8.09513751,"longitud":-72.88188297,"poblacionTotal":6677},{"nombre":"Barranca de Upía","dep":"Meta","valorRank":211,"valorIndice":53.94569,"encuestado":false,"latitud":3.345562732,"longitud":-72.95645988,"poblacionTotal":5946},{"nombre":"Bolívar","dep":"Cauca","valorRank":212,"valorIndice":53.97907,"encuestado":false,"latitud":2.396833887,"longitud":-76.82423283,"poblacionTotal":35837},{"nombre":"Subachoque","dep":"Cundinamarca","valorRank":213,"valorIndice":54.03856,"encuestado":false,"latitud":4.771120716,"longitud":-74.43111092,"poblacionTotal":14874},{"nombre":"Tunja","dep":"Boyacá","valorRank":214,"valorIndice":54.25481,"encuestado":false,"latitud":5.891672889,"longitud":-72.62788054,"poblacionTotal":167991},{"nombre":"San Francisco","dep":"Cundinamarca","valorRank":215,"valorIndice":54.30778,"encuestado":false,"latitud":4.771120716,"longitud":-74.43111092,"poblacionTotal":9644},{"nombre":"Puerto Concordia","dep":"Meta","valorRank":216,"valorIndice":54.36523,"encuestado":false,"latitud":3.345562732,"longitud":-72.95645988,"poblacionTotal":8086},{"nombre":"Guaitarilla","dep":"Nariño","valorRank":217,"valorIndice":54.3664,"encuestado":false,"latitud":1.571094987,"longitud":-77.87020496,"poblacionTotal":10774},{"nombre":"Nueva Granada","dep":"Magdalena","valorRank":218,"valorIndice":54.45989,"encuestado":false,"latitud":10.24738355,"longitud":-74.26175733,"poblacionTotal":17470},{"nombre":"Gama","dep":"Cundinamarca","valorRank":219,"valorIndice":54.47849,"encuestado":false,"latitud":4.771120716,"longitud":-74.43111092,"poblacionTotal":3055},{"nombre":"San Cayetano","dep":"Cundinamarca","valorRank":219,"valorIndice":54.47849,"encuestado":false,"latitud":4.771120716,"longitud":-74.43111092,"poblacionTotal":4043},{"nombre":"Distracción","dep":"La Guajira","valorRank":220,"valorIndice":54.58147,"encuestado":false,"latitud":11.47687008,"longitud":-72.42951072,"poblacionTotal":11934},{"nombre":"Altos del Rosario","dep":"Bolívar","valorRank":221,"valorIndice":54.58236,"encuestado":false,"latitud":8.079796863,"longitud":-74.23514814,"poblacionTotal":9009},{"nombre":"Alejandría","dep":"Antioquia","valorRank":222,"valorIndice":54.59463,"encuestado":false,"latitud":6.702032125,"longitud":-75.50455704,"poblacionTotal":3839},{"nombre":"Florián","dep":"Santander","valorRank":223,"valorIndice":54.59712,"encuestado":false,"latitud":6.693633184,"longitud":-73.48600894,"poblacionTotal":4603},{"nombre":"Florencia","dep":"Cauca","valorRank":224,"valorIndice":54.68057,"encuestado":false,"latitud":2.396833887,"longitud":-76.82423283,"poblacionTotal":5089},{"nombre":"San Andrés de Tumaco","dep":"Nariño","valorRank":225,"valorIndice":54.75481,"encuestado":false,"latitud":1.571094987,"longitud":-77.87020496,"poblacionTotal":138091},{"nombre":"La Vega","dep":"Cauca","valorRank":226,"valorIndice":54.78278,"encuestado":false,"latitud":2.396833887,"longitud":-76.82423283,"poblacionTotal":19777},{"nombre":"San Zenón","dep":"Magdalena","valorRank":227,"valorIndice":54.91023,"encuestado":false,"latitud":10.24738355,"longitud":-74.26175733,"poblacionTotal":11279},{"nombre":"Soacha","dep":"Cundinamarca","valorRank":228,"valorIndice":55.10373,"encuestado":true,"latitud":4.771120716,"longitud":-74.43111092,"poblacionTotal":645205},{"nombre":"Soracá","dep":"Boyacá","valorRank":229,"valorIndice":55.10933,"encuestado":false,"latitud":5.891672889,"longitud":-72.62788054,"poblacionTotal":5904},{"nombre":"Córdoba","dep":"Nariño","valorRank":230,"valorIndice":55.12627,"encuestado":false,"latitud":1.571094987,"longitud":-77.87020496,"poblacionTotal":14827},{"nombre":"Plato","dep":"Magdalena","valorRank":231,"valorIndice":55.1379,"encuestado":false,"latitud":10.24738355,"longitud":-74.26175733,"poblacionTotal":56210},{"nombre":"Córdoba","dep":"Bolívar","valorRank":232,"valorIndice":55.38751,"encuestado":false,"latitud":8.079796863,"longitud":-74.23514814,"poblacionTotal":15012},{"nombre":"San Francisco","dep":"Putumayo","valorRank":233,"valorIndice":55.52066,"encuestado":false,"latitud":0.3673031,"longitud":-75.51406183,"poblacionTotal":5572},{"nombre":"Barrancas","dep":"La Guajira","valorRank":234,"valorIndice":55.60812,"encuestado":true,"latitud":11.47687008,"longitud":-72.42951072,"poblacionTotal":28549},{"nombre":"La Cruz","dep":"Nariño","valorRank":235,"valorIndice":55.61846,"encuestado":false,"latitud":1.571094987,"longitud":-77.87020496,"poblacionTotal":16674},{"nombre":"Medio Baudó","dep":"Chocó","valorRank":236,"valorIndice":55.62528,"encuestado":false,"latitud":5.397581542,"longitud":-76.942811,"poblacionTotal":13423},{"nombre":"Paratebueno","dep":"Cundinamarca","valorRank":237,"valorIndice":55.65145,"encuestado":false,"latitud":4.771120716,"longitud":-74.43111092,"poblacionTotal":8043},{"nombre":"Guapotá","dep":"Santander","valorRank":238,"valorIndice":55.70217,"encuestado":false,"latitud":6.693633184,"longitud":-73.48600894,"poblacionTotal":2052},{"nombre":"Albania","dep":"La Guajira","valorRank":239,"valorIndice":55.7089,"encuestado":false,"latitud":11.47687008,"longitud":-72.42951072,"poblacionTotal":26940},{"nombre":"Ayapel","dep":"Córdoba","valorRank":240,"valorIndice":55.72927,"encuestado":false,"latitud":8.358549754,"longitud":-75.79200872,"poblacionTotal":38816},{"nombre":"Buesaco","dep":"Nariño","valorRank":241,"valorIndice":55.77856,"encuestado":false,"latitud":1.571094987,"longitud":-77.87020496,"poblacionTotal":19951},{"nombre":"Santa María","dep":"Boyacá","valorRank":242,"valorIndice":55.89183,"encuestado":false,"latitud":5.891672889,"longitud":-72.62788054,"poblacionTotal":3109},{"nombre":"Viotá","dep":"Cundinamarca","valorRank":243,"valorIndice":55.90689,"encuestado":false,"latitud":4.771120716,"longitud":-74.43111092,"poblacionTotal":12589},{"nombre":"Necoclí","dep":"Antioquia","valorRank":244,"valorIndice":56.18663,"encuestado":false,"latitud":6.702032125,"longitud":-75.50455704,"poblacionTotal":38420},{"nombre":"Tocaima","dep":"Cundinamarca","valorRank":245,"valorIndice":56.19574,"encuestado":false,"latitud":4.771120716,"longitud":-74.43111092,"poblacionTotal":13649},{"nombre":"Monguí","dep":"Boyacá","valorRank":246,"valorIndice":56.2525,"encuestado":false,"latitud":5.891672889,"longitud":-72.62788054,"poblacionTotal":3895},{"nombre":"Medellín","dep":"Antioquia","valorRank":247,"valorIndice":56.33664,"encuestado":false,"latitud":6.702032125,"longitud":-75.50455704,"poblacionTotal":2372330},{"nombre":"Nariño","dep":"Antioquia","valorRank":248,"valorIndice":56.34142,"encuestado":false,"latitud":6.702032125,"longitud":-75.50455704,"poblacionTotal":8603},{"nombre":"Roberto Payán","dep":"Nariño","valorRank":249,"valorIndice":56.36969,"encuestado":false,"latitud":1.571094987,"longitud":-77.87020496,"poblacionTotal":10473},{"nombre":"El Tablón de Gómez","dep":"Nariño","valorRank":249,"valorIndice":56.36969,"encuestado":false,"latitud":1.571094987,"longitud":-77.87020496,"poblacionTotal":13255},{"nombre":"Barbacoas","dep":"Nariño","valorRank":249,"valorIndice":56.36969,"encuestado":false,"latitud":1.571094987,"longitud":-77.87020496,"poblacionTotal":34248},{"nombre":"Magüí","dep":"Nariño","valorRank":249,"valorIndice":56.36969,"encuestado":false,"latitud":1.571094987,"longitud":-77.87020496,"poblacionTotal":18262},{"nombre":"Los Andes","dep":"Nariño","valorRank":249,"valorIndice":56.36969,"encuestado":false,"latitud":1.571094987,"longitud":-77.87020496,"poblacionTotal":8703},{"nombre":"San Pablo","dep":"Nariño","valorRank":249,"valorIndice":56.36969,"encuestado":false,"latitud":1.571094987,"longitud":-77.87020496,"poblacionTotal":12929},{"nombre":"Leiva","dep":"Nariño","valorRank":249,"valorIndice":56.36969,"encuestado":false,"latitud":1.571094987,"longitud":-77.87020496,"poblacionTotal":8201},{"nombre":"El Peñol","dep":"Nariño","valorRank":249,"valorIndice":56.36969,"encuestado":false,"latitud":1.571094987,"longitud":-77.87020496,"poblacionTotal":6223},{"nombre":"Santa Bárbara","dep":"Nariño","valorRank":249,"valorIndice":56.36969,"encuestado":false,"latitud":1.571094987,"longitud":-77.87020496,"poblacionTotal":8989},{"nombre":"Funes","dep":"Nariño","valorRank":249,"valorIndice":56.36969,"encuestado":false,"latitud":1.571094987,"longitud":-77.87020496,"poblacionTotal":6211},{"nombre":"Pupiales","dep":"Nariño","valorRank":249,"valorIndice":56.36969,"encuestado":false,"latitud":1.571094987,"longitud":-77.87020496,"poblacionTotal":16431},{"nombre":"Consacá","dep":"Nariño","valorRank":249,"valorIndice":56.36969,"encuestado":false,"latitud":1.571094987,"longitud":-77.87020496,"poblacionTotal":10117},{"nombre":"San Bernardo","dep":"Nariño","valorRank":249,"valorIndice":56.36969,"encuestado":false,"latitud":1.571094987,"longitud":-77.87020496,"poblacionTotal":8874},{"nombre":"Puerres","dep":"Nariño","valorRank":249,"valorIndice":56.36969,"encuestado":false,"latitud":1.571094987,"longitud":-77.87020496,"poblacionTotal":8446},{"nombre":"Francisco Pizarro","dep":"Nariño","valorRank":249,"valorIndice":56.36969,"encuestado":false,"latitud":1.571094987,"longitud":-77.87020496,"poblacionTotal":7430},{"nombre":"Yacuanquer","dep":"Nariño","valorRank":249,"valorIndice":56.36969,"encuestado":false,"latitud":1.571094987,"longitud":-77.87020496,"poblacionTotal":10579},{"nombre":"Linares","dep":"Nariño","valorRank":249,"valorIndice":56.36969,"encuestado":false,"latitud":1.571094987,"longitud":-77.87020496,"poblacionTotal":8974},{"nombre":"Sandoná","dep":"Nariño","valorRank":249,"valorIndice":56.36969,"encuestado":false,"latitud":1.571094987,"longitud":-77.87020496,"poblacionTotal":18859},{"nombre":"Colón","dep":"Nariño","valorRank":249,"valorIndice":56.36969,"encuestado":false,"latitud":1.571094987,"longitud":-77.87020496,"poblacionTotal":7764},{"nombre":"Contadero","dep":"Nariño","valorRank":249,"valorIndice":56.36969,"encuestado":false,"latitud":1.571094987,"longitud":-77.87020496,"poblacionTotal":6421},{"nombre":"Providencia","dep":"Nariño","valorRank":249,"valorIndice":56.36969,"encuestado":false,"latitud":1.571094987,"longitud":-77.87020496,"poblacionTotal":4619},{"nombre":"San Pedro de Cartago","dep":"Nariño","valorRank":249,"valorIndice":56.36969,"encuestado":false,"latitud":1.571094987,"longitud":-77.87020496,"poblacionTotal":6572},{"nombre":"Taminango","dep":"Nariño","valorRank":249,"valorIndice":56.36969,"encuestado":false,"latitud":1.571094987,"longitud":-77.87020496,"poblacionTotal":15412},{"nombre":"Mallama","dep":"Nariño","valorRank":249,"valorIndice":56.36969,"encuestado":false,"latitud":1.571094987,"longitud":-77.87020496,"poblacionTotal":8013},{"nombre":"San Lorenzo","dep":"Nariño","valorRank":249,"valorIndice":56.36969,"encuestado":false,"latitud":1.571094987,"longitud":-77.87020496,"poblacionTotal":16653},{"nombre":"Túquerres","dep":"Nariño","valorRank":249,"valorIndice":56.36969,"encuestado":false,"latitud":1.571094987,"longitud":-77.87020496,"poblacionTotal":42413},{"nombre":"Potosí","dep":"Nariño","valorRank":249,"valorIndice":56.36969,"encuestado":false,"latitud":1.571094987,"longitud":-77.87020496,"poblacionTotal":10186},{"nombre":"Nemocón","dep":"Cundinamarca","valorRank":250,"valorIndice":56.3812,"encuestado":false,"latitud":4.771120716,"longitud":-74.43111092,"poblacionTotal":12198},{"nombre":"San Juan del Cesar","dep":"La Guajira","valorRank":251,"valorIndice":56.38542,"encuestado":false,"latitud":11.47687008,"longitud":-72.42951072,"poblacionTotal":46077},{"nombre":"Caldono","dep":"Cauca","valorRank":252,"valorIndice":56.58942,"encuestado":false,"latitud":2.396833887,"longitud":-76.82423283,"poblacionTotal":36139},{"nombre":"Tutazá","dep":"Boyacá","valorRank":253,"valorIndice":56.60436,"encuestado":false,"latitud":5.891672889,"longitud":-72.62788054,"poblacionTotal":1794},{"nombre":"Labranzagrande","dep":"Boyacá","valorRank":254,"valorIndice":56.70332,"encuestado":false,"latitud":5.891672889,"longitud":-72.62788054,"poblacionTotal":3075},{"nombre":"Saravena","dep":"Arauca","valorRank":255,"valorIndice":56.78909,"encuestado":false,"latitud":6.569577215,"longitud":-70.96732394,"poblacionTotal":52884},{"nombre":"San Bernardo","dep":"Cundinamarca","valorRank":256,"valorIndice":56.88752,"encuestado":false,"latitud":4.771120716,"longitud":-74.43111092,"poblacionTotal":7417},{"nombre":"Argelia","dep":"Cauca","valorRank":257,"valorIndice":56.90818,"encuestado":false,"latitud":2.396833887,"longitud":-76.82423283,"poblacionTotal":20136},{"nombre":"Tenerife","dep":"Magdalena","valorRank":258,"valorIndice":57.02211,"encuestado":false,"latitud":10.24738355,"longitud":-74.26175733,"poblacionTotal":12364},{"nombre":"Betulia","dep":"Santander","valorRank":259,"valorIndice":57.02754,"encuestado":false,"latitud":6.693633184,"longitud":-73.48600894,"poblacionTotal":5230},{"nombre":"La Montañita","dep":"Caquetá","valorRank":260,"valorIndice":57.10508,"encuestado":false,"latitud":0.798556195,"longitud":-73.95946756,"poblacionTotal":12128},{"nombre":"Rionegro","dep":"Santander","valorRank":261,"valorIndice":57.10985,"encuestado":false,"latitud":6.693633184,"longitud":-73.48600894,"poblacionTotal":25266},{"nombre":"Urumita","dep":"La Guajira","valorRank":262,"valorIndice":57.12634,"encuestado":false,"latitud":11.47687008,"longitud":-72.42951072,"poblacionTotal":10198},{"nombre":"Caparrapí","dep":"Cundinamarca","valorRank":263,"valorIndice":57.24191,"encuestado":false,"latitud":4.771120716,"longitud":-74.43111092,"poblacionTotal":10301},{"nombre":"Uribia","dep":"La Guajira","valorRank":264,"valorIndice":57.3227,"encuestado":true,"latitud":11.47687008,"longitud":-72.42951072,"poblacionTotal":160711},{"nombre":"El Doncello","dep":"Caquetá","valorRank":265,"valorIndice":57.37535,"encuestado":false,"latitud":0.798556195,"longitud":-73.95946756,"poblacionTotal":17775},{"nombre":"Chiriguaná","dep":"Cesar","valorRank":266,"valorIndice":57.58106,"encuestado":false,"latitud":9.53665993,"longitud":-73.51783154,"poblacionTotal":27006},{"nombre":"Margarita","dep":"Bolívar","valorRank":267,"valorIndice":57.62592,"encuestado":false,"latitud":8.079796863,"longitud":-74.23514814,"poblacionTotal":9720},{"nombre":"Cerrito","dep":"Santander","valorRank":268,"valorIndice":57.64135,"encuestado":false,"latitud":6.693633184,"longitud":-73.48600894,"poblacionTotal":6460},{"nombre":"La Guadalupe","dep":"Guainía","valorRank":269,"valorIndice":57.68161,"encuestado":false,"latitud":2.727842865,"longitud":-68.81661272,"poblacionTotal":222},{"nombre":"Morichal","dep":"Guainía","valorRank":269,"valorIndice":57.68161,"encuestado":false,"latitud":2.727842865,"longitud":-68.81661272,"poblacionTotal":812},{"nombre":"Pana Pana","dep":"Guainía","valorRank":269,"valorIndice":57.68161,"encuestado":false,"latitud":2.727842865,"longitud":-68.81661272,"poblacionTotal":1182},{"nombre":"Mapiripana","dep":"Guainía","valorRank":269,"valorIndice":57.68161,"encuestado":false,"latitud":2.727842865,"longitud":-68.81661272,"poblacionTotal":1011},{"nombre":"Dibulla","dep":"La Guajira","valorRank":270,"valorIndice":57.73195,"encuestado":false,"latitud":11.47687008,"longitud":-72.42951072,"poblacionTotal":36196},{"nombre":"El Tambo","dep":"Cauca","valorRank":271,"valorIndice":57.80819,"encuestado":false,"latitud":2.396833887,"longitud":-76.82423283,"poblacionTotal":38688},{"nombre":"Caracolí","dep":"Antioquia","valorRank":272,"valorIndice":57.86985,"encuestado":false,"latitud":6.702032125,"longitud":-75.50455704,"poblacionTotal":3967},{"nombre":"Palmas del Socorro","dep":"Santander","valorRank":273,"valorIndice":57.89048,"encuestado":false,"latitud":6.693633184,"longitud":-73.48600894,"poblacionTotal":2467},{"nombre":"Atrato","dep":"Chocó","valorRank":274,"valorIndice":57.89801,"encuestado":false,"latitud":5.397581542,"longitud":-76.942811,"poblacionTotal":5519},{"nombre":"Choachí","dep":"Cundinamarca","valorRank":275,"valorIndice":57.91666,"encuestado":false,"latitud":4.771120716,"longitud":-74.43111092,"poblacionTotal":10397},{"nombre":"Ciénaga","dep":"Magdalena","valorRank":276,"valorIndice":57.92146,"encuestado":false,"latitud":10.24738355,"longitud":-74.26175733,"poblacionTotal":118435},{"nombre":"Gachancipá","dep":"Cundinamarca","valorRank":277,"valorIndice":57.92415,"encuestado":false,"latitud":4.771120716,"longitud":-74.43111092,"poblacionTotal":16633},{"nombre":"Galán","dep":"Santander","valorRank":278,"valorIndice":57.93298,"encuestado":false,"latitud":6.693633184,"longitud":-73.48600894,"poblacionTotal":2682},{"nombre":"Bucaramanga","dep":"Santander","valorRank":279,"valorIndice":58.04277,"encuestado":false,"latitud":6.693633184,"longitud":-73.48600894,"poblacionTotal":528855},{"nombre":"Caldas","dep":"Boyacá","valorRank":280,"valorIndice":58.0558,"encuestado":false,"latitud":5.891672889,"longitud":-72.62788054,"poblacionTotal":3086},{"nombre":"El Espino","dep":"Boyacá","valorRank":280,"valorIndice":58.0558,"encuestado":false,"latitud":5.891672889,"longitud":-72.62788054,"poblacionTotal":2715},{"nombre":"Muzo","dep":"Boyacá","valorRank":281,"valorIndice":58.21037,"encuestado":false,"latitud":5.891672889,"longitud":-72.62788054,"poblacionTotal":8323},{"nombre":"Puerto Berrío","dep":"Antioquia","valorRank":282,"valorIndice":58.31531,"encuestado":false,"latitud":6.702032125,"longitud":-75.50455704,"poblacionTotal":36801},{"nombre":"Vijes","dep":"Valle del Cauca","valorRank":283,"valorIndice":58.48658,"encuestado":false,"latitud":3.569858693,"longitud":-76.62850427,"poblacionTotal":10766},{"nombre":"Tadó","dep":"Chocó","valorRank":284,"valorIndice":58.50776,"encuestado":false,"latitud":5.397581542,"longitud":-76.942811,"poblacionTotal":17000},{"nombre":"Piamonte","dep":"Cauca","valorRank":285,"valorIndice":58.52226,"encuestado":false,"latitud":2.396833887,"longitud":-76.82423283,"poblacionTotal":7125},{"nombre":"El Carmen","dep":"Norte de Santander","valorRank":286,"valorIndice":58.57825,"encuestado":false,"latitud":8.09513751,"longitud":-72.88188297,"poblacionTotal":12001},{"nombre":"Capitanejo","dep":"Santander","valorRank":287,"valorIndice":58.58396,"encuestado":false,"latitud":6.693633184,"longitud":-73.48600894,"poblacionTotal":5328},{"nombre":"La Mesa","dep":"Cundinamarca","valorRank":288,"valorIndice":58.58795,"encuestado":false,"latitud":4.771120716,"longitud":-74.43111092,"poblacionTotal":29452},{"nombre":"Sahagún","dep":"Córdoba","valorRank":289,"valorIndice":58.62764,"encuestado":false,"latitud":8.358549754,"longitud":-75.79200872,"poblacionTotal":94020},{"nombre":"Granada","dep":"Cundinamarca","valorRank":290,"valorIndice":58.74438,"encuestado":false,"latitud":4.771120716,"longitud":-74.43111092,"poblacionTotal":6922},{"nombre":"Simijaca","dep":"Cundinamarca","valorRank":291,"valorIndice":58.79748,"encuestado":false,"latitud":4.771120716,"longitud":-74.43111092,"poblacionTotal":11526},{"nombre":"Villapinzón","dep":"Cundinamarca","valorRank":292,"valorIndice":58.84182,"encuestado":false,"latitud":4.771120716,"longitud":-74.43111092,"poblacionTotal":15834},{"nombre":"Socorro","dep":"Santander","valorRank":293,"valorIndice":58.84664,"encuestado":false,"latitud":6.693633184,"longitud":-73.48600894,"poblacionTotal":29997},{"nombre":"Saboyá","dep":"Boyacá","valorRank":294,"valorIndice":58.88809,"encuestado":false,"latitud":5.891672889,"longitud":-72.62788054,"poblacionTotal":11161},{"nombre":"Concepción","dep":"Santander","valorRank":295,"valorIndice":58.92913,"encuestado":false,"latitud":6.693633184,"longitud":-73.48600894,"poblacionTotal":5300},{"nombre":"San José de Pare","dep":"Boyacá","valorRank":296,"valorIndice":58.94399,"encuestado":false,"latitud":5.891672889,"longitud":-72.62788054,"poblacionTotal":4658},{"nombre":"La Jagua de Ibirico","dep":"Cesar","valorRank":297,"valorIndice":58.95911,"encuestado":false,"latitud":9.53665993,"longitud":-73.51783154,"poblacionTotal":37356},{"nombre":"Boavita","dep":"Boyacá","valorRank":298,"valorIndice":59.01049,"encuestado":false,"latitud":5.891672889,"longitud":-72.62788054,"poblacionTotal":5024},{"nombre":"Útica","dep":"Cundinamarca","valorRank":299,"valorIndice":59.04549,"encuestado":false,"latitud":4.771120716,"longitud":-74.43111092,"poblacionTotal":4032},{"nombre":"Achí","dep":"Bolívar","valorRank":300,"valorIndice":59.12436,"encuestado":false,"latitud":8.079796863,"longitud":-74.23514814,"poblacionTotal":18879},{"nombre":"Calamar","dep":"Guaviare","valorRank":301,"valorIndice":59.19229,"encuestado":false,"latitud":1.924531973,"longitud":-72.12859569,"poblacionTotal":8648},{"nombre":"Arauquita","dep":"Arauca","valorRank":302,"valorIndice":59.22885,"encuestado":true,"latitud":6.569577215,"longitud":-70.96732394,"poblacionTotal":45268},{"nombre":"Pandi","dep":"Cundinamarca","valorRank":303,"valorIndice":59.27383,"encuestado":false,"latitud":4.771120716,"longitud":-74.43111092,"poblacionTotal":4735},{"nombre":"Chipaque","dep":"Cundinamarca","valorRank":303,"valorIndice":59.27383,"encuestado":false,"latitud":4.771120716,"longitud":-74.43111092,"poblacionTotal":8633},{"nombre":"Junín","dep":"Cundinamarca","valorRank":303,"valorIndice":59.27383,"encuestado":false,"latitud":4.771120716,"longitud":-74.43111092,"poblacionTotal":5234},{"nombre":"Tarso","dep":"Antioquia","valorRank":304,"valorIndice":59.30276,"encuestado":false,"latitud":6.702032125,"longitud":-75.50455704,"poblacionTotal":5663},{"nombre":"Calamar","dep":"Bolívar","valorRank":305,"valorIndice":59.32423,"encuestado":false,"latitud":8.079796863,"longitud":-74.23514814,"poblacionTotal":22202},{"nombre":"Albania","dep":"Caquetá","valorRank":306,"valorIndice":59.3273,"encuestado":false,"latitud":0.798556195,"longitud":-73.95946756,"poblacionTotal":4514},{"nombre":"Barranco de Loba","dep":"Bolívar","valorRank":307,"valorIndice":59.3296,"encuestado":false,"latitud":8.079796863,"longitud":-74.23514814,"poblacionTotal":14435},{"nombre":"Floresta","dep":"Boyacá","valorRank":308,"valorIndice":59.40828,"encuestado":false,"latitud":5.891672889,"longitud":-72.62788054,"poblacionTotal":3186},{"nombre":"Villeta","dep":"Cundinamarca","valorRank":309,"valorIndice":59.40913,"encuestado":false,"latitud":4.771120716,"longitud":-74.43111092,"poblacionTotal":25957},{"nombre":"Cogua","dep":"Cundinamarca","valorRank":310,"valorIndice":59.42215,"encuestado":false,"latitud":4.771120716,"longitud":-74.43111092,"poblacionTotal":21102},{"nombre":"Cáceres","dep":"Antioquia","valorRank":311,"valorIndice":59.58934,"encuestado":false,"latitud":6.702032125,"longitud":-75.50455704,"poblacionTotal":26460},{"nombre":"Chigorodó","dep":"Antioquia","valorRank":312,"valorIndice":59.60533,"encuestado":false,"latitud":6.702032125,"longitud":-75.50455704,"poblacionTotal":55564},{"nombre":"Fonseca","dep":"La Guajira","valorRank":313,"valorIndice":59.64509,"encuestado":true,"latitud":11.47687008,"longitud":-72.42951072,"poblacionTotal":40852},{"nombre":"Cubará","dep":"Boyacá","valorRank":314,"valorIndice":59.65199,"encuestado":false,"latitud":5.891672889,"longitud":-72.62788054,"poblacionTotal":10164},{"nombre":"Guayatá","dep":"Boyacá","valorRank":315,"valorIndice":59.70229,"encuestado":false,"latitud":5.891672889,"longitud":-72.62788054,"poblacionTotal":3112},{"nombre":"Zona Bananera","dep":"Magdalena","valorRank":316,"valorIndice":59.75124,"encuestado":false,"latitud":10.24738355,"longitud":-74.26175733,"poblacionTotal":66802},{"nombre":"Pajarito","dep":"Boyacá","valorRank":317,"valorIndice":59.80607,"encuestado":false,"latitud":5.891672889,"longitud":-72.62788054,"poblacionTotal":1941},{"nombre":"Chaguaní","dep":"Cundinamarca","valorRank":318,"valorIndice":59.83144,"encuestado":false,"latitud":4.771120716,"longitud":-74.43111092,"poblacionTotal":3323},{"nombre":"San Pedro de Urabá","dep":"Antioquia","valorRank":319,"valorIndice":59.87016,"encuestado":false,"latitud":6.702032125,"longitud":-75.50455704,"poblacionTotal":30527},{"nombre":"Santa Marta","dep":"Magdalena","valorRank":320,"valorIndice":59.87777,"encuestado":true,"latitud":10.24738355,"longitud":-74.26175733,"poblacionTotal":479853},{"nombre":"Cajicá","dep":"Cundinamarca","valorRank":321,"valorIndice":59.8816,"encuestado":false,"latitud":4.771120716,"longitud":-74.43111092,"poblacionTotal":81111},{"nombre":"Gutiérrez","dep":"Cundinamarca","valorRank":322,"valorIndice":59.95115,"encuestado":false,"latitud":4.771120716,"longitud":-74.43111092,"poblacionTotal":3311},{"nombre":"Guayabetal","dep":"Cundinamarca","valorRank":323,"valorIndice":59.95888,"encuestado":false,"latitud":4.771120716,"longitud":-74.43111092,"poblacionTotal":5809},{"nombre":"Arenal","dep":"Bolívar","valorRank":324,"valorIndice":60.03876,"encuestado":false,"latitud":8.079796863,"longitud":-74.23514814,"poblacionTotal":7169},{"nombre":"Sibaté","dep":"Cundinamarca","valorRank":325,"valorIndice":60.06124,"encuestado":false,"latitud":4.771120716,"longitud":-74.43111092,"poblacionTotal":32803},{"nombre":"San Cristóbal","dep":"Bolívar","valorRank":326,"valorIndice":60.10191,"encuestado":false,"latitud":8.079796863,"longitud":-74.23514814,"poblacionTotal":7454},{"nombre":"Florencia","dep":"Caquetá","valorRank":327,"valorIndice":60.17439,"encuestado":false,"latitud":0.798556195,"longitud":-73.95946756,"poblacionTotal":156789},{"nombre":"Sonsón","dep":"Antioquia","valorRank":328,"valorIndice":60.20703,"encuestado":false,"latitud":6.702032125,"longitud":-75.50455704,"poblacionTotal":31861},{"nombre":"Landázuri","dep":"Santander","valorRank":329,"valorIndice":60.24789,"encuestado":false,"latitud":6.693633184,"longitud":-73.48600894,"poblacionTotal":9238},{"nombre":"Versalles","dep":"Valle del Cauca","valorRank":330,"valorIndice":60.27176,"encuestado":false,"latitud":3.569858693,"longitud":-76.62850427,"poblacionTotal":6233},{"nombre":"Sesquilé","dep":"Cundinamarca","valorRank":331,"valorIndice":60.3091,"encuestado":false,"latitud":4.771120716,"longitud":-74.43111092,"poblacionTotal":11067},{"nombre":"Fúquene","dep":"Cundinamarca","valorRank":332,"valorIndice":60.37081,"encuestado":false,"latitud":4.771120716,"longitud":-74.43111092,"poblacionTotal":4849},{"nombre":"Los Córdobas","dep":"Córdoba","valorRank":333,"valorIndice":60.42808,"encuestado":false,"latitud":8.358549754,"longitud":-75.79200872,"poblacionTotal":15886},{"nombre":"Pijao","dep":"Quindío","valorRank":334,"valorIndice":60.48294,"encuestado":false,"latitud":4.455241567,"longitud":-75.68962853,"poblacionTotal":4877},{"nombre":"Padilla","dep":"Cauca","valorRank":335,"valorIndice":60.49752,"encuestado":false,"latitud":2.396833887,"longitud":-76.82423283,"poblacionTotal":8763},{"nombre":"Giraldo","dep":"Antioquia","valorRank":336,"valorIndice":60.51522,"encuestado":false,"latitud":6.702032125,"longitud":-75.50455704,"poblacionTotal":5057},{"nombre":"Salazar","dep":"Norte de Santander","valorRank":337,"valorIndice":60.53756,"encuestado":false,"latitud":8.09513751,"longitud":-72.88188297,"poblacionTotal":8768},{"nombre":"Puerto Nare","dep":"Antioquia","valorRank":338,"valorIndice":60.64883,"encuestado":false,"latitud":6.702032125,"longitud":-75.50455704,"poblacionTotal":12161},{"nombre":"Tamalameque","dep":"Cesar","valorRank":339,"valorIndice":60.67591,"encuestado":false,"latitud":9.53665993,"longitud":-73.51783154,"poblacionTotal":14063},{"nombre":"Riohacha","dep":"La Guajira","valorRank":340,"valorIndice":60.69247,"encuestado":true,"latitud":11.47687008,"longitud":-72.42951072,"poblacionTotal":177573},{"nombre":"Maicao","dep":"La Guajira","valorRank":341,"valorIndice":60.6967,"encuestado":false,"latitud":11.47687008,"longitud":-72.42951072,"poblacionTotal":159223},{"nombre":"Yondó","dep":"Antioquia","valorRank":342,"valorIndice":60.72018,"encuestado":false,"latitud":6.702032125,"longitud":-75.50455704,"poblacionTotal":17597},{"nombre":"Montecristo","dep":"Bolívar","valorRank":343,"valorIndice":60.7397,"encuestado":false,"latitud":8.079796863,"longitud":-74.23514814,"poblacionTotal":13470},{"nombre":"Viracachá","dep":"Boyacá","valorRank":344,"valorIndice":60.76075,"encuestado":false,"latitud":5.891672889,"longitud":-72.62788054,"poblacionTotal":2582},{"nombre":"Rondón","dep":"Boyacá","valorRank":344,"valorIndice":60.76075,"encuestado":false,"latitud":5.891672889,"longitud":-72.62788054,"poblacionTotal":2230},{"nombre":"Pasca","dep":"Cundinamarca","valorRank":345,"valorIndice":60.82072,"encuestado":false,"latitud":4.771120716,"longitud":-74.43111092,"poblacionTotal":8686},{"nombre":"Santana","dep":"Boyacá","valorRank":346,"valorIndice":60.86554,"encuestado":false,"latitud":5.891672889,"longitud":-72.62788054,"poblacionTotal":6826},{"nombre":"San Juan de Urabá","dep":"Antioquia","valorRank":347,"valorIndice":60.8841,"encuestado":false,"latitud":6.702032125,"longitud":-75.50455704,"poblacionTotal":19992},{"nombre":"El Guacamayo","dep":"Santander","valorRank":348,"valorIndice":60.95115,"encuestado":false,"latitud":6.693633184,"longitud":-73.48600894,"poblacionTotal":1643},{"nombre":"Ariguaní","dep":"Magdalena","valorRank":349,"valorIndice":60.95412,"encuestado":false,"latitud":10.24738355,"longitud":-74.26175733,"poblacionTotal":28348},{"nombre":"Tena","dep":"Cundinamarca","valorRank":350,"valorIndice":60.96736,"encuestado":false,"latitud":4.771120716,"longitud":-74.43111092,"poblacionTotal":8072},{"nombre":"Sogamoso","dep":"Boyacá","valorRank":351,"valorIndice":60.98494,"encuestado":false,"latitud":5.891672889,"longitud":-72.62788054,"poblacionTotal":120462},{"nombre":"Barbosa","dep":"Santander","valorRank":352,"valorIndice":61.04256,"encuestado":false,"latitud":6.693633184,"longitud":-73.48600894,"poblacionTotal":28769},{"nombre":"Tipacoque","dep":"Boyacá","valorRank":353,"valorIndice":61.05406,"encuestado":false,"latitud":5.891672889,"longitud":-72.62788054,"poblacionTotal":3154},{"nombre":"El Colegio","dep":"Cundinamarca","valorRank":354,"valorIndice":61.09079,"encuestado":false,"latitud":4.771120716,"longitud":-74.43111092,"poblacionTotal":22775},{"nombre":"Pedraza","dep":"Magdalena","valorRank":355,"valorIndice":61.11094,"encuestado":false,"latitud":10.24738355,"longitud":-74.26175733,"poblacionTotal":7569},{"nombre":"Pueblorrico","dep":"Antioquia","valorRank":356,"valorIndice":61.14507,"encuestado":false,"latitud":6.702032125,"longitud":-75.50455704,"poblacionTotal":7202},{"nombre":"Bolívar","dep":"Valle del Cauca","valorRank":357,"valorIndice":61.14972,"encuestado":false,"latitud":3.569858693,"longitud":-76.62850427,"poblacionTotal":13954},{"nombre":"Ciudad Bolívar","dep":"Antioquia","valorRank":358,"valorIndice":61.18147,"encuestado":false,"latitud":6.702032125,"longitud":-75.50455704,"poblacionTotal":23361},{"nombre":"Trinidad","dep":"Casanare","valorRank":359,"valorIndice":61.20597,"encuestado":false,"latitud":5.404064237,"longitud":-71.60188073,"poblacionTotal":11734},{"nombre":"Valle de San José","dep":"Santander","valorRank":360,"valorIndice":61.2211,"encuestado":false,"latitud":6.693633184,"longitud":-73.48600894,"poblacionTotal":5648},{"nombre":"Chimichagua","dep":"Cesar","valorRank":361,"valorIndice":61.23283,"encuestado":false,"latitud":9.53665993,"longitud":-73.51783154,"poblacionTotal":30289},{"nombre":"Valledupar","dep":"Cesar","valorRank":362,"valorIndice":61.23769,"encuestado":true,"latitud":9.53665993,"longitud":-73.51783154,"poblacionTotal":459349},{"nombre":"Duitama","dep":"Boyacá","valorRank":363,"valorIndice":61.33265,"encuestado":false,"latitud":5.891672889,"longitud":-72.62788054,"poblacionTotal":117606},{"nombre":"La Belleza","dep":"Santander","valorRank":364,"valorIndice":61.36039,"encuestado":false,"latitud":6.693633184,"longitud":-73.48600894,"poblacionTotal":5505},{"nombre":"Fusagasugá","dep":"Cundinamarca","valorRank":365,"valorIndice":61.39572,"encuestado":false,"latitud":4.771120716,"longitud":-74.43111092,"poblacionTotal":134658},{"nombre":"Regidor","dep":"Bolívar","valorRank":366,"valorIndice":61.41645,"encuestado":false,"latitud":8.079796863,"longitud":-74.23514814,"poblacionTotal":5335},{"nombre":"Panqueba","dep":"Boyacá","valorRank":367,"valorIndice":61.41872,"encuestado":false,"latitud":5.891672889,"longitud":-72.62788054,"poblacionTotal":1644},{"nombre":"Carmen de Apicalá","dep":"Tolima","valorRank":368,"valorIndice":61.42135,"encuestado":false,"latitud":4.03477252,"longitud":-75.2558271,"poblacionTotal":9643},{"nombre":"Sopó","dep":"Cundinamarca","valorRank":369,"valorIndice":61.42708,"encuestado":false,"latitud":4.771120716,"longitud":-74.43111092,"poblacionTotal":24838},{"nombre":"Zaragoza","dep":"Antioquia","valorRank":370,"valorIndice":61.43215,"encuestado":false,"latitud":6.702032125,"longitud":-75.50455704,"poblacionTotal":24067},{"nombre":"San José del Guaviare","dep":"Guaviare","valorRank":371,"valorIndice":61.43739,"encuestado":false,"latitud":1.924531973,"longitud":-72.12859569,"poblacionTotal":48086},{"nombre":"Nóvita","dep":"Chocó","valorRank":372,"valorIndice":61.46944,"encuestado":false,"latitud":5.397581542,"longitud":-76.942811,"poblacionTotal":8164},{"nombre":"San Antonio del Tequendama","dep":"Cundinamarca","valorRank":373,"valorIndice":61.47353,"encuestado":false,"latitud":4.771120716,"longitud":-74.43111092,"poblacionTotal":10214},{"nombre":"San Bernardo del Viento","dep":"Córdoba","valorRank":374,"valorIndice":61.50527,"encuestado":false,"latitud":8.358549754,"longitud":-75.79200872,"poblacionTotal":29437},{"nombre":"Sutamarchán","dep":"Boyacá","valorRank":375,"valorIndice":61.51186,"encuestado":false,"latitud":5.891672889,"longitud":-72.62788054,"poblacionTotal":5755},{"nombre":"Uribe","dep":"Meta","valorRank":376,"valorIndice":61.53994,"encuestado":false,"latitud":3.345562732,"longitud":-72.95645988,"poblacionTotal":8549},{"nombre":"Yopal","dep":"Casanare","valorRank":377,"valorIndice":61.58029,"encuestado":false,"latitud":5.404064237,"longitud":-71.60188073,"poblacionTotal":156942},{"nombre":"San Martín","dep":"Meta","valorRank":378,"valorIndice":61.59897,"encuestado":false,"latitud":3.345562732,"longitud":-72.95645988,"poblacionTotal":22281},{"nombre":"Roncesvalles","dep":"Tolima","valorRank":379,"valorIndice":61.60175,"encuestado":false,"latitud":4.03477252,"longitud":-75.2558271,"poblacionTotal":5161},{"nombre":"Belmira","dep":"Antioquia","valorRank":380,"valorIndice":61.63391,"encuestado":false,"latitud":6.702032125,"longitud":-75.50455704,"poblacionTotal":5349},{"nombre":"La Uvita","dep":"Boyacá","valorRank":381,"valorIndice":61.66241,"encuestado":false,"latitud":5.891672889,"longitud":-72.62788054,"poblacionTotal":2872},{"nombre":"Agustín Codazzi","dep":"Cesar","valorRank":382,"valorIndice":61.67331,"encuestado":false,"latitud":9.53665993,"longitud":-73.51783154,"poblacionTotal":58621},{"nombre":"San Luis de Palenque","dep":"Casanare","valorRank":383,"valorIndice":61.679,"encuestado":false,"latitud":5.404064237,"longitud":-71.60188073,"poblacionTotal":7537},{"nombre":"Hobo","dep":"Huila","valorRank":384,"valorIndice":61.82477,"encuestado":false,"latitud":2.570143029,"longitud":-75.58434836,"poblacionTotal":6700},{"nombre":"Guaduas","dep":"Cundinamarca","valorRank":385,"valorIndice":61.82581,"encuestado":false,"latitud":4.771120716,"longitud":-74.43111092,"poblacionTotal":27571},{"nombre":"Buenavista","dep":"Córdoba","valorRank":386,"valorIndice":61.83313,"encuestado":false,"latitud":8.358549754,"longitud":-75.79200872,"poblacionTotal":18344},{"nombre":"Villanueva","dep":"Casanare","valorRank":387,"valorIndice":61.84787,"encuestado":false,"latitud":5.404064237,"longitud":-71.60188073,"poblacionTotal":31727},{"nombre":"El Piñón","dep":"Magdalena","valorRank":388,"valorIndice":61.85307,"encuestado":false,"latitud":10.24738355,"longitud":-74.26175733,"poblacionTotal":17308},{"nombre":"Aguazul","dep":"Casanare","valorRank":389,"valorIndice":61.87516,"encuestado":false,"latitud":5.404064237,"longitud":-71.60188073,"poblacionTotal":33440},{"nombre":"Sutatausa","dep":"Cundinamarca","valorRank":390,"valorIndice":61.93792,"encuestado":false,"latitud":4.771120716,"longitud":-74.43111092,"poblacionTotal":5258},{"nombre":"San Onofre","dep":"Sucre","valorRank":391,"valorIndice":61.99913,"encuestado":false,"latitud":9.064941448,"longitud":-75.10981755,"poblacionTotal":47952},{"nombre":"El Paujíl","dep":"Caquetá","valorRank":392,"valorIndice":62.10508,"encuestado":false,"latitud":0.798556195,"longitud":-73.95946756,"poblacionTotal":13014},{"nombre":"La Paz","dep":"Cesar","valorRank":393,"valorIndice":62.1467,"encuestado":false,"latitud":9.53665993,"longitud":-73.51783154,"poblacionTotal":26109},{"nombre":"Vélez","dep":"Santander","valorRank":394,"valorIndice":62.156,"encuestado":false,"latitud":6.693633184,"longitud":-73.48600894,"poblacionTotal":19376},{"nombre":"Iza","dep":"Boyacá","valorRank":395,"valorIndice":62.19279,"encuestado":false,"latitud":5.891672889,"longitud":-72.62788054,"poblacionTotal":1944},{"nombre":"La Jagua del Pilar","dep":"La Guajira","valorRank":396,"valorIndice":62.29944,"encuestado":false,"latitud":11.47687008,"longitud":-72.42951072,"poblacionTotal":2952},{"nombre":"Monterrey","dep":"Casanare","valorRank":397,"valorIndice":62.33179,"encuestado":false,"latitud":5.404064237,"longitud":-71.60188073,"poblacionTotal":14828},{"nombre":"Montería","dep":"Córdoba","valorRank":398,"valorIndice":62.40004,"encuestado":false,"latitud":8.358549754,"longitud":-75.79200872,"poblacionTotal":433723},{"nombre":"Madrid","dep":"Cundinamarca","valorRank":399,"valorIndice":62.40416,"encuestado":false,"latitud":4.771120716,"longitud":-74.43111092,"poblacionTotal":109696},{"nombre":"El Carmen de Chucurí","dep":"Santander","valorRank":400,"valorIndice":62.4248,"encuestado":false,"latitud":6.693633184,"longitud":-73.48600894,"poblacionTotal":17638},{"nombre":"Villanueva","dep":"Santander","valorRank":401,"valorIndice":62.43246,"encuestado":false,"latitud":6.693633184,"longitud":-73.48600894,"poblacionTotal":6738},{"nombre":"Puerto Triunfo","dep":"Antioquia","valorRank":402,"valorIndice":62.43385,"encuestado":false,"latitud":6.702032125,"longitud":-75.50455704,"poblacionTotal":17231},{"nombre":"Caramanta","dep":"Antioquia","valorRank":403,"valorIndice":62.45517,"encuestado":false,"latitud":6.702032125,"longitud":-75.50455704,"poblacionTotal":4269},{"nombre":"Bello","dep":"Antioquia","valorRank":404,"valorIndice":62.45838,"encuestado":true,"latitud":6.702032125,"longitud":-75.50455704,"poblacionTotal":481901},{"nombre":"Gámbita","dep":"Santander","valorRank":405,"valorIndice":62.49234,"encuestado":false,"latitud":6.693633184,"longitud":-73.48600894,"poblacionTotal":3529},{"nombre":"Balboa","dep":"Cauca","valorRank":406,"valorIndice":62.6017,"encuestado":false,"latitud":2.396833887,"longitud":-76.82423283,"poblacionTotal":18910},{"nombre":"Guaca","dep":"Santander","valorRank":407,"valorIndice":62.62157,"encuestado":false,"latitud":6.693633184,"longitud":-73.48600894,"poblacionTotal":5762},{"nombre":"Jardín","dep":"Antioquia","valorRank":408,"valorIndice":62.6816,"encuestado":false,"latitud":6.702032125,"longitud":-75.50455704,"poblacionTotal":13541},{"nombre":"Orocué","dep":"Casanare","valorRank":409,"valorIndice":62.68577,"encuestado":false,"latitud":5.404064237,"longitud":-71.60188073,"poblacionTotal":8142},{"nombre":"Chitaraque","dep":"Boyacá","valorRank":410,"valorIndice":62.77586,"encuestado":false,"latitud":5.891672889,"longitud":-72.62788054,"poblacionTotal":5013},{"nombre":"Caucasia","dep":"Antioquia","valorRank":411,"valorIndice":62.78066,"encuestado":false,"latitud":6.702032125,"longitud":-75.50455704,"poblacionTotal":84717},{"nombre":"Guachené","dep":"Cauca","valorRank":412,"valorIndice":62.78836,"encuestado":false,"latitud":2.396833887,"longitud":-76.82423283,"poblacionTotal":18513},{"nombre":"Socha","dep":"Boyacá","valorRank":413,"valorIndice":62.80843,"encuestado":false,"latitud":5.891672889,"longitud":-72.62788054,"poblacionTotal":7509},{"nombre":"Anolaima","dep":"Cundinamarca","valorRank":414,"valorIndice":62.81139,"encuestado":false,"latitud":4.771120716,"longitud":-74.43111092,"poblacionTotal":12204},{"nombre":"Taraira","dep":"Vaupés","valorRank":415,"valorIndice":62.82051,"encuestado":false,"latitud":0.64624561,"longitud":-70.56140566,"poblacionTotal":2010},{"nombre":"Rioblanco","dep":"Tolima","valorRank":416,"valorIndice":62.86549,"encuestado":false,"latitud":4.03477252,"longitud":-75.2558271,"poblacionTotal":19090},{"nombre":"El Guamo","dep":"Bolívar","valorRank":417,"valorIndice":62.87311,"encuestado":false,"latitud":8.079796863,"longitud":-74.23514814,"poblacionTotal":7861},{"nombre":"Villavicencio","dep":"Meta","valorRank":418,"valorIndice":62.87466,"encuestado":true,"latitud":3.345562732,"longitud":-72.95645988,"poblacionTotal":451212},{"nombre":"Fredonia","dep":"Antioquia","valorRank":419,"valorIndice":62.89485,"encuestado":false,"latitud":6.702032125,"longitud":-75.50455704,"poblacionTotal":18790},{"nombre":"Arboletes","dep":"Antioquia","valorRank":420,"valorIndice":62.93338,"encuestado":false,"latitud":6.702032125,"longitud":-75.50455704,"poblacionTotal":26289},{"nombre":"Momil","dep":"Córdoba","valorRank":421,"valorIndice":62.95299,"encuestado":false,"latitud":8.358549754,"longitud":-75.79200872,"poblacionTotal":16264},{"nombre":"El Banco","dep":"Magdalena","valorRank":422,"valorIndice":62.97153,"encuestado":true,"latitud":10.24738355,"longitud":-74.26175733,"poblacionTotal":59594},{"nombre":"Tununguá","dep":"Boyacá","valorRank":423,"valorIndice":62.9739,"encuestado":false,"latitud":5.891672889,"longitud":-72.62788054,"poblacionTotal":1526},{"nombre":"La Calera","dep":"Cundinamarca","valorRank":424,"valorIndice":62.97911,"encuestado":false,"latitud":4.771120716,"longitud":-74.43111092,"poblacionTotal":28501},{"nombre":"Santa Rosalía","dep":"Vichada","valorRank":425,"valorIndice":62.99265,"encuestado":false,"latitud":4.713557125,"longitud":-69.41400011,"poblacionTotal":4026},{"nombre":"Nechí","dep":"Antioquia","valorRank":426,"valorIndice":63.00266,"encuestado":false,"latitud":6.702032125,"longitud":-75.50455704,"poblacionTotal":24066},{"nombre":"Astrea","dep":"Cesar","valorRank":427,"valorIndice":63.03905,"encuestado":false,"latitud":9.53665993,"longitud":-73.51783154,"poblacionTotal":18434},{"nombre":"Quebradanegra","dep":"Cundinamarca","valorRank":428,"valorIndice":63.0416,"encuestado":false,"latitud":4.771120716,"longitud":-74.43111092,"poblacionTotal":4453},{"nombre":"Chalán","dep":"Sucre","valorRank":429,"valorIndice":63.10229,"encuestado":false,"latitud":9.064941448,"longitud":-75.10981755,"poblacionTotal":4425},{"nombre":"Aracataca","dep":"Magdalena","valorRank":430,"valorIndice":63.16626,"encuestado":false,"latitud":10.24738355,"longitud":-74.26175733,"poblacionTotal":37476},{"nombre":"Paz de Ariporo","dep":"Casanare","valorRank":431,"valorIndice":63.17496,"encuestado":false,"latitud":5.404064237,"longitud":-71.60188073,"poblacionTotal":34446},{"nombre":"Dabeiba","dep":"Antioquia","valorRank":432,"valorIndice":63.17693,"encuestado":false,"latitud":6.702032125,"longitud":-75.50455704,"poblacionTotal":22717},{"nombre":"Aipe","dep":"Huila","valorRank":433,"valorIndice":63.1844,"encuestado":false,"latitud":2.570143029,"longitud":-75.58434836,"poblacionTotal":14817},{"nombre":"Andalucía","dep":"Valle del Cauca","valorRank":434,"valorIndice":63.1941,"encuestado":false,"latitud":3.569858693,"longitud":-76.62850427,"poblacionTotal":18132},{"nombre":"Jericó","dep":"Boyacá","valorRank":435,"valorIndice":63.19522,"encuestado":false,"latitud":5.891672889,"longitud":-72.62788054,"poblacionTotal":3540},{"nombre":"Villa de Leyva","dep":"Boyacá","valorRank":436,"valorIndice":63.24103,"encuestado":false,"latitud":5.891672889,"longitud":-72.62788054,"poblacionTotal":14406},{"nombre":"Valencia","dep":"Córdoba","valorRank":437,"valorIndice":63.24739,"encuestado":false,"latitud":8.358549754,"longitud":-75.79200872,"poblacionTotal":30545},{"nombre":"Arroyohondo","dep":"Bolívar","valorRank":438,"valorIndice":63.26116,"encuestado":false,"latitud":8.079796863,"longitud":-74.23514814,"poblacionTotal":8058},{"nombre":"Lorica","dep":"Córdoba","valorRank":439,"valorIndice":63.30111,"encuestado":false,"latitud":8.358549754,"longitud":-75.79200872,"poblacionTotal":98491},{"nombre":"Páramo","dep":"Santander","valorRank":440,"valorIndice":63.34254,"encuestado":false,"latitud":6.693633184,"longitud":-73.48600894,"poblacionTotal":4144},{"nombre":"Argelia","dep":"Antioquia","valorRank":441,"valorIndice":63.44658,"encuestado":false,"latitud":6.702032125,"longitud":-75.50455704,"poblacionTotal":6752},{"nombre":"Cotorra","dep":"Córdoba","valorRank":442,"valorIndice":63.48501,"encuestado":false,"latitud":8.358549754,"longitud":-75.79200872,"poblacionTotal":16215},{"nombre":"San Gil","dep":"Santander","valorRank":443,"valorIndice":63.5069,"encuestado":false,"latitud":6.693633184,"longitud":-73.48600894,"poblacionTotal":54687},{"nombre":"Magangué","dep":"Bolívar","valorRank":444,"valorIndice":63.52326,"encuestado":false,"latitud":8.079796863,"longitud":-74.23514814,"poblacionTotal":128003},{"nombre":"Covarachía","dep":"Boyacá","valorRank":445,"valorIndice":63.59152,"encuestado":false,"latitud":5.891672889,"longitud":-72.62788054,"poblacionTotal":2628},{"nombre":"Hatillo de Loba","dep":"Bolívar","valorRank":446,"valorIndice":63.59438,"encuestado":false,"latitud":8.079796863,"longitud":-74.23514814,"poblacionTotal":11770},{"nombre":"Manaure","dep":"La Guajira","valorRank":447,"valorIndice":63.66471,"encuestado":false,"latitud":11.47687008,"longitud":-72.42951072,"poblacionTotal":74528},{"nombre":"Puerto Rico","dep":"Caquetá","valorRank":448,"valorIndice":63.66758,"encuestado":false,"latitud":0.798556195,"longitud":-73.95946756,"poblacionTotal":24395},{"nombre":"Colombia","dep":"Huila","valorRank":449,"valorIndice":63.67829,"encuestado":false,"latitud":2.570143029,"longitud":-75.58434836,"poblacionTotal":7040},{"nombre":"Concordia","dep":"Magdalena","valorRank":450,"valorIndice":63.69989,"encuestado":false,"latitud":10.24738355,"longitud":-74.26175733,"poblacionTotal":9681},{"nombre":"Guataquí","dep":"Cundinamarca","valorRank":451,"valorIndice":63.71397,"encuestado":false,"latitud":4.771120716,"longitud":-74.43111092,"poblacionTotal":1977},{"nombre":"San Andrés","dep":"Santander","valorRank":452,"valorIndice":63.74692,"encuestado":false,"latitud":6.693633184,"longitud":-73.48600894,"poblacionTotal":8035},{"nombre":"Girardot","dep":"Cundinamarca","valorRank":453,"valorIndice":63.75132,"encuestado":false,"latitud":4.771120716,"longitud":-74.43111092,"poblacionTotal":92903},{"nombre":"Páez","dep":"Cauca","valorRank":454,"valorIndice":63.90485,"encuestado":false,"latitud":2.396833887,"longitud":-76.82423283,"poblacionTotal":37666},{"nombre":"Ciénaga de Oro","dep":"Córdoba","valorRank":455,"valorIndice":63.90829,"encuestado":false,"latitud":8.358549754,"longitud":-75.79200872,"poblacionTotal":56278},{"nombre":"Machetá","dep":"Cundinamarca","valorRank":456,"valorIndice":63.92604,"encuestado":false,"latitud":4.771120716,"longitud":-74.43111092,"poblacionTotal":6057},{"nombre":"Firavitoba","dep":"Boyacá","valorRank":457,"valorIndice":63.93614,"encuestado":false,"latitud":5.891672889,"longitud":-72.62788054,"poblacionTotal":6523},{"nombre":"Puebloviejo","dep":"Magdalena","valorRank":458,"valorIndice":63.96509,"encuestado":false,"latitud":10.24738355,"longitud":-74.26175733,"poblacionTotal":26419},{"nombre":"Cumaral","dep":"Meta","valorRank":459,"valorIndice":64.02161,"encuestado":false,"latitud":3.345562732,"longitud":-72.95645988,"poblacionTotal":21397},{"nombre":"Pacho","dep":"Cundinamarca","valorRank":460,"valorIndice":64.04968,"encuestado":false,"latitud":4.771120716,"longitud":-74.43111092,"poblacionTotal":23726},{"nombre":"Lejanías","dep":"Meta","valorRank":461,"valorIndice":64.07494,"encuestado":false,"latitud":3.345562732,"longitud":-72.95645988,"poblacionTotal":10576},{"nombre":"Gachantivá","dep":"Boyacá","valorRank":462,"valorIndice":64.10217,"encuestado":false,"latitud":5.891672889,"longitud":-72.62788054,"poblacionTotal":2744},{"nombre":"Valdivia","dep":"Antioquia","valorRank":463,"valorIndice":64.12255,"encuestado":false,"latitud":6.702032125,"longitud":-75.50455704,"poblacionTotal":11511},{"nombre":"Curití","dep":"Santander","valorRank":464,"valorIndice":64.15273,"encuestado":false,"latitud":6.693633184,"longitud":-73.48600894,"poblacionTotal":11653},{"nombre":"Buenavista","dep":"Sucre","valorRank":465,"valorIndice":64.17106,"encuestado":false,"latitud":9.064941448,"longitud":-75.10981755,"poblacionTotal":10007},{"nombre":"Fómeque","dep":"Cundinamarca","valorRank":466,"valorIndice":64.17457,"encuestado":false,"latitud":4.771120716,"longitud":-74.43111092,"poblacionTotal":10749},{"nombre":"Chimá","dep":"Córdoba","valorRank":467,"valorIndice":64.17858,"encuestado":false,"latitud":8.358549754,"longitud":-75.79200872,"poblacionTotal":13492},{"nombre":"Norosí","dep":"Bolívar","valorRank":468,"valorIndice":64.22315,"encuestado":false,"latitud":8.079796863,"longitud":-74.23514814,"poblacionTotal":7899},{"nombre":"Úmbita","dep":"Boyacá","valorRank":469,"valorIndice":64.23856,"encuestado":false,"latitud":5.891672889,"longitud":-72.62788054,"poblacionTotal":6905},{"nombre":"Santa Rosa de Viterbo","dep":"Boyacá","valorRank":469,"valorIndice":64.23856,"encuestado":false,"latitud":5.891672889,"longitud":-72.62788054,"poblacionTotal":11329},{"nombre":"Cicuco","dep":"Bolívar","valorRank":470,"valorIndice":64.24932,"encuestado":false,"latitud":8.079796863,"longitud":-74.23514814,"poblacionTotal":13120},{"nombre":"El Retén","dep":"Magdalena","valorRank":471,"valorIndice":64.30952,"encuestado":false,"latitud":10.24738355,"longitud":-74.26175733,"poblacionTotal":19345},{"nombre":"Garagoa","dep":"Boyacá","valorRank":472,"valorIndice":64.37318,"encuestado":false,"latitud":5.891672889,"longitud":-72.62788054,"poblacionTotal":14145},{"nombre":"Chinú","dep":"Córdoba","valorRank":473,"valorIndice":64.37434,"encuestado":false,"latitud":8.358549754,"longitud":-75.79200872,"poblacionTotal":42680},{"nombre":"Pore","dep":"Casanare","valorRank":474,"valorIndice":64.4109,"encuestado":false,"latitud":5.404064237,"longitud":-71.60188073,"poblacionTotal":10675},{"nombre":"Guasca","dep":"Cundinamarca","valorRank":475,"valorIndice":64.42439,"encuestado":false,"latitud":4.771120716,"longitud":-74.43111092,"poblacionTotal":14992},{"nombre":"Vistahermosa","dep":"Meta","valorRank":476,"valorIndice":64.47871,"encuestado":false,"latitud":3.345562732,"longitud":-72.95645988,"poblacionTotal":16525},{"nombre":"Silvania","dep":"Cundinamarca","valorRank":477,"valorIndice":64.5462,"encuestado":false,"latitud":4.771120716,"longitud":-74.43111092,"poblacionTotal":20581},{"nombre":"Suaita","dep":"Santander","valorRank":478,"valorIndice":64.56649,"encuestado":false,"latitud":6.693633184,"longitud":-73.48600894,"poblacionTotal":8771},{"nombre":"Venecia","dep":"Antioquia","valorRank":479,"valorIndice":64.61295,"encuestado":false,"latitud":6.702032125,"longitud":-75.50455704,"poblacionTotal":10280},{"nombre":"Montebello","dep":"Antioquia","valorRank":479,"valorIndice":64.61295,"encuestado":false,"latitud":6.702032125,"longitud":-75.50455704,"poblacionTotal":5881},{"nombre":"Tiquisio","dep":"Bolívar","valorRank":480,"valorIndice":64.62061,"encuestado":false,"latitud":8.079796863,"longitud":-74.23514814,"poblacionTotal":17939},{"nombre":"La Macarena","dep":"Meta","valorRank":481,"valorIndice":64.63169,"encuestado":false,"latitud":3.345562732,"longitud":-72.95645988,"poblacionTotal":23877},{"nombre":"Falan","dep":"Tolima","valorRank":482,"valorIndice":64.65785,"encuestado":false,"latitud":4.03477252,"longitud":-75.2558271,"poblacionTotal":6612},{"nombre":"La Sierra","dep":"Cauca","valorRank":483,"valorIndice":64.6786,"encuestado":false,"latitud":2.396833887,"longitud":-76.82423283,"poblacionTotal":9935},{"nombre":"Confines","dep":"Santander","valorRank":484,"valorIndice":64.70708,"encuestado":false,"latitud":6.693633184,"longitud":-73.48600894,"poblacionTotal":2915},{"nombre":"Chipatá","dep":"Santander","valorRank":484,"valorIndice":64.70708,"encuestado":false,"latitud":6.693633184,"longitud":-73.48600894,"poblacionTotal":4341},{"nombre":"Soplaviento","dep":"Bolívar","valorRank":485,"valorIndice":64.72964,"encuestado":false,"latitud":8.079796863,"longitud":-74.23514814,"poblacionTotal":9187},{"nombre":"Coello","dep":"Tolima","valorRank":486,"valorIndice":64.82305,"encuestado":false,"latitud":4.03477252,"longitud":-75.2558271,"poblacionTotal":7495},{"nombre":"Moniquirá","dep":"Boyacá","valorRank":487,"valorIndice":64.8447,"encuestado":false,"latitud":5.891672889,"longitud":-72.62788054,"poblacionTotal":20848},{"nombre":"María la Baja","dep":"Bolívar","valorRank":488,"valorIndice":64.85414,"encuestado":false,"latitud":8.079796863,"longitud":-74.23514814,"poblacionTotal":45324},{"nombre":"Chivolo","dep":"Magdalena","valorRank":489,"valorIndice":64.85564,"encuestado":false,"latitud":10.24738355,"longitud":-74.26175733,"poblacionTotal":18208},{"nombre":"Yolombó","dep":"Antioquia","valorRank":490,"valorIndice":64.85966,"encuestado":false,"latitud":6.702032125,"longitud":-75.50455704,"poblacionTotal":19010},{"nombre":"Santa Rosa","dep":"Bolívar","valorRank":491,"valorIndice":64.86834,"encuestado":false,"latitud":8.079796863,"longitud":-74.23514814,"poblacionTotal":18375},{"nombre":"Guamal","dep":"Magdalena","valorRank":492,"valorIndice":64.90646,"encuestado":false,"latitud":10.24738355,"longitud":-74.26175733,"poblacionTotal":25312},{"nombre":"Ubalá","dep":"Cundinamarca","valorRank":493,"valorIndice":64.91541,"encuestado":false,"latitud":4.771120716,"longitud":-74.43111092,"poblacionTotal":7583},{"nombre":"Samacá","dep":"Boyacá","valorRank":494,"valorIndice":64.95184,"encuestado":false,"latitud":5.891672889,"longitud":-72.62788054,"poblacionTotal":17542},{"nombre":"Ortega","dep":"Tolima","valorRank":495,"valorIndice":64.97792,"encuestado":false,"latitud":4.03477252,"longitud":-75.2558271,"poblacionTotal":29665},{"nombre":"Natagaima","dep":"Tolima","valorRank":495,"valorIndice":64.97792,"encuestado":false,"latitud":4.03477252,"longitud":-75.2558271,"poblacionTotal":14292},{"nombre":"Pauna","dep":"Boyacá","valorRank":496,"valorIndice":65.05686,"encuestado":false,"latitud":5.891672889,"longitud":-72.62788054,"poblacionTotal":6355},{"nombre":"La Palma","dep":"Cundinamarca","valorRank":497,"valorIndice":65.06132,"encuestado":false,"latitud":4.771120716,"longitud":-74.43111092,"poblacionTotal":7708},{"nombre":"Pailitas","dep":"Cesar","valorRank":498,"valorIndice":65.06684,"encuestado":false,"latitud":9.53665993,"longitud":-73.51783154,"poblacionTotal":16800},{"nombre":"Pivijay","dep":"Magdalena","valorRank":499,"valorIndice":65.09067,"encuestado":false,"latitud":10.24738355,"longitud":-74.26175733,"poblacionTotal":34374},{"nombre":"Icononzo","dep":"Tolima","valorRank":500,"valorIndice":65.09096,"encuestado":false,"latitud":4.03477252,"longitud":-75.2558271,"poblacionTotal":10057},{"nombre":"Villarrica","dep":"Tolima","valorRank":501,"valorIndice":65.10316,"encuestado":false,"latitud":4.03477252,"longitud":-75.2558271,"poblacionTotal":5021},{"nombre":"Nimaima","dep":"Cundinamarca","valorRank":502,"valorIndice":65.10601,"encuestado":false,"latitud":4.771120716,"longitud":-74.43111092,"poblacionTotal":3086},{"nombre":"Neiva","dep":"Huila","valorRank":503,"valorIndice":65.1091,"encuestado":false,"latitud":2.570143029,"longitud":-75.58434836,"poblacionTotal":314526},{"nombre":"Pitalito","dep":"Huila","valorRank":504,"valorIndice":65.11288,"encuestado":false,"latitud":2.570143029,"longitud":-75.58434836,"poblacionTotal":120287},{"nombre":"Lérida","dep":"Tolima","valorRank":505,"valorIndice":65.15826,"encuestado":false,"latitud":4.03477252,"longitud":-75.2558271,"poblacionTotal":17084},{"nombre":"Matanza","dep":"Santander","valorRank":506,"valorIndice":65.18716,"encuestado":false,"latitud":6.693633184,"longitud":-73.48600894,"poblacionTotal":4499},{"nombre":"Heliconia","dep":"Antioquia","valorRank":507,"valorIndice":65.20635,"encuestado":false,"latitud":6.702032125,"longitud":-75.50455704,"poblacionTotal":4709},{"nombre":"Sotará Paispamba","dep":"Cauca","valorRank":508,"valorIndice":65.208,"encuestado":false,"latitud":2.396833887,"longitud":-76.82423283,"poblacionTotal":11958},{"nombre":"Une","dep":"Cundinamarca","valorRank":509,"valorIndice":65.22984,"encuestado":false,"latitud":4.771120716,"longitud":-74.43111092,"poblacionTotal":6902},{"nombre":"Pinchote","dep":"Santander","valorRank":510,"valorIndice":65.23223,"encuestado":false,"latitud":6.693633184,"longitud":-73.48600894,"poblacionTotal":4508},{"nombre":"Popayán","dep":"Cauca","valorRank":511,"valorIndice":65.23415,"encuestado":false,"latitud":2.396833887,"longitud":-76.82423283,"poblacionTotal":277270},{"nombre":"Honda","dep":"Tolima","valorRank":512,"valorIndice":65.23553,"encuestado":false,"latitud":4.03477252,"longitud":-75.2558271,"poblacionTotal":23616},{"nombre":"Tabio","dep":"Cundinamarca","valorRank":513,"valorIndice":65.31079,"encuestado":false,"latitud":4.771120716,"longitud":-74.43111092,"poblacionTotal":20602},{"nombre":"Vianí","dep":"Cundinamarca","valorRank":514,"valorIndice":65.35748,"encuestado":false,"latitud":4.771120716,"longitud":-74.43111092,"poblacionTotal":3806},{"nombre":"Supatá","dep":"Cundinamarca","valorRank":514,"valorIndice":65.35748,"encuestado":false,"latitud":4.771120716,"longitud":-74.43111092,"poblacionTotal":4726},{"nombre":"Mahates","dep":"Bolívar","valorRank":515,"valorIndice":65.36782,"encuestado":false,"latitud":8.079796863,"longitud":-74.23514814,"poblacionTotal":26075},{"nombre":"Rovira","dep":"Tolima","valorRank":516,"valorIndice":65.42525,"encuestado":false,"latitud":4.03477252,"longitud":-75.2558271,"poblacionTotal":20220},{"nombre":"Hato Corozal","dep":"Casanare","valorRank":517,"valorIndice":65.46847,"encuestado":false,"latitud":5.404064237,"longitud":-71.60188073,"poblacionTotal":11431},{"nombre":"Hato","dep":"Santander","valorRank":518,"valorIndice":65.47839,"encuestado":false,"latitud":6.693633184,"longitud":-73.48600894,"poblacionTotal":2120},{"nombre":"El Rosal","dep":"Cundinamarca","valorRank":519,"valorIndice":65.4786,"encuestado":false,"latitud":4.771120716,"longitud":-74.43111092,"poblacionTotal":21887},{"nombre":"Zipaquirá","dep":"Cundinamarca","valorRank":520,"valorIndice":65.49027,"encuestado":false,"latitud":4.771120716,"longitud":-74.43111092,"poblacionTotal":129652},{"nombre":"Buenavista","dep":"Quindío","valorRank":521,"valorIndice":65.4937,"encuestado":false,"latitud":4.455241567,"longitud":-75.68962853,"poblacionTotal":2741},{"nombre":"San Vicente de Chucurí","dep":"Santander","valorRank":522,"valorIndice":65.50687,"encuestado":false,"latitud":6.693633184,"longitud":-73.48600894,"poblacionTotal":29427},{"nombre":"Cajamarca","dep":"Tolima","valorRank":523,"valorIndice":65.52164,"encuestado":false,"latitud":4.03477252,"longitud":-75.2558271,"poblacionTotal":17309},{"nombre":"Isnos","dep":"Huila","valorRank":524,"valorIndice":65.53008,"encuestado":false,"latitud":2.570143029,"longitud":-75.58434836,"poblacionTotal":24593},{"nombre":"Canalete","dep":"Córdoba","valorRank":525,"valorIndice":65.55418,"encuestado":false,"latitud":8.358549754,"longitud":-75.79200872,"poblacionTotal":14831},{"nombre":"Ocamonte","dep":"Santander","valorRank":526,"valorIndice":65.61076,"encuestado":false,"latitud":6.693633184,"longitud":-73.48600894,"poblacionTotal":4537},{"nombre":"González","dep":"Cesar","valorRank":527,"valorIndice":65.62913,"encuestado":false,"latitud":9.53665993,"longitud":-73.51783154,"poblacionTotal":4053},{"nombre":"Cajibío","dep":"Cauca","valorRank":528,"valorIndice":65.63229,"encuestado":false,"latitud":2.396833887,"longitud":-76.82423283,"poblacionTotal":32237},{"nombre":"Planeta Rica","dep":"Córdoba","valorRank":529,"valorIndice":65.64888,"encuestado":false,"latitud":8.358549754,"longitud":-75.79200872,"poblacionTotal":60259},{"nombre":"San Sebastián de Buenavista","dep":"Magdalena","valorRank":530,"valorIndice":65.78764,"encuestado":false,"latitud":10.24738355,"longitud":-74.26175733,"poblacionTotal":18865},{"nombre":"Río Iró","dep":"Chocó","valorRank":531,"valorIndice":65.79602,"encuestado":false,"latitud":5.397581542,"longitud":-76.942811,"poblacionTotal":4525},{"nombre":"Bagadó","dep":"Chocó","valorRank":531,"valorIndice":65.79602,"encuestado":false,"latitud":5.397581542,"longitud":-76.942811,"poblacionTotal":10583},{"nombre":"San José del Palmar","dep":"Chocó","valorRank":531,"valorIndice":65.79602,"encuestado":false,"latitud":5.397581542,"longitud":-76.942811,"poblacionTotal":4721},{"nombre":"Río Quito","dep":"Chocó","valorRank":531,"valorIndice":65.79602,"encuestado":false,"latitud":5.397581542,"longitud":-76.942811,"poblacionTotal":7974},{"nombre":"Cértegui","dep":"Chocó","valorRank":531,"valorIndice":65.79602,"encuestado":false,"latitud":5.397581542,"longitud":-76.942811,"poblacionTotal":4683},{"nombre":"Medio San Juan","dep":"Chocó","valorRank":531,"valorIndice":65.79602,"encuestado":false,"latitud":5.397581542,"longitud":-76.942811,"poblacionTotal":9073},{"nombre":"Mogotes","dep":"Santander","valorRank":532,"valorIndice":65.83025,"encuestado":false,"latitud":6.693633184,"longitud":-73.48600894,"poblacionTotal":10165},{"nombre":"La Apartada","dep":"Córdoba","valorRank":533,"valorIndice":65.84441,"encuestado":false,"latitud":8.358549754,"longitud":-75.79200872,"poblacionTotal":13742},{"nombre":"Socotá","dep":"Boyacá","valorRank":534,"valorIndice":65.89465,"encuestado":false,"latitud":5.891672889,"longitud":-72.62788054,"poblacionTotal":7133},{"nombre":"Puerto Rondón","dep":"Arauca","valorRank":535,"valorIndice":65.90813,"encuestado":false,"latitud":6.569577215,"longitud":-70.96732394,"poblacionTotal":4169},{"nombre":"El Carmen de Bolívar","dep":"Bolívar","valorRank":536,"valorIndice":65.95429,"encuestado":false,"latitud":8.079796863,"longitud":-74.23514814,"poblacionTotal":67461},{"nombre":"Arbeláez","dep":"Cundinamarca","valorRank":537,"valorIndice":66.00414,"encuestado":false,"latitud":4.771120716,"longitud":-74.43111092,"poblacionTotal":10005},