[{"id":1,"nombre":"San Andrés","dep":"Archipiélago de San Andrés, Providencia y Santa Catalina","pobVenMun":1150,"porcentRegularMun":5.091819999999999,"porcentAfiliadDep":5,"valorRank":977,"valorIndice":3.543224,"encuestado":false,"latitud":12.58472,"longitud":-81.70056,"poblacionTotal":43754},{"id":2,"nombre":"La Chorrera","dep":"Amazonas","pobVenMun":4,"porcentRegularMun":22.68804,"porcentAfiliadDep":6,"valorRank":976,"valorIndice":7.136252,"encuestado":false,"latitud":-1.433191,"longitud":-72.75316,"poblacionTotal":2357},{"id":3,"nombre":"La Pedrera","dep":"Amazonas","pobVenMun":8,"porcentRegularMun":22.68804,"porcentAfiliadDep":6,"valorRank":976,"valorIndice":7.136252,"encuestado":false,"latitud":-1.3227795,"longitud":-69.5811239,"poblacionTotal":3781},{"id":4,"nombre":"La Victoria","dep":"Amazonas","pobVenMun":7,"porcentRegularMun":22.68804,"porcentAfiliadDep":6,"valorRank":976,"valorIndice":7.136252,"encuestado":false,"latitud":-0.1190366,"longitud":-71.507695,"poblacionTotal":166},{"id":5,"nombre":"Mirití - Paraná","dep":"Amazonas","pobVenMun":1,"porcentRegularMun":22.68804,"porcentAfiliadDep":6,"valorRank":976,"valorIndice":7.136252,"encuestado":false,"latitud":-0.7164314553917207,"longitud":-71.10179895557704,"poblacionTotal":1023},{"id":6,"nombre":"Puerto Santander","dep":"Amazonas","pobVenMun":25,"porcentRegularMun":22.68804,"porcentAfiliadDep":6,"valorRank":976,"valorIndice":7.136252,"encuestado":false,"latitud":-0.622646,"longitud":-72.383251,"poblacionTotal":1450},{"id":7,"nombre":"Puerto Alegría","dep":"Amazonas","pobVenMun":1,"porcentRegularMun":22.68804,"porcentAfiliadDep":6,"valorRank":976,"valorIndice":7.136252,"encuestado":false,"latitud":-0.9171904,"longitud":-73.8132227,"poblacionTotal":681},{"id":8,"nombre":"El Encanto","dep":"Amazonas","pobVenMun":1396,"porcentRegularMun":22.68804,"porcentAfiliadDep":6,"valorRank":975,"valorIndice":7.180194,"encuestado":false,"latitud":-1.747214,"longitud":-73.21171,"poblacionTotal":1885},{"id":9,"nombre":"Providencia","dep":"Archipiélago de San Andrés, Providencia y Santa Catalina","pobVenMun":48,"porcentRegularMun":5.091819999999999,"porcentAfiliadDep":5,"valorRank":974,"valorIndice":16.31321,"encuestado":false,"latitud":12.58472,"longitud":-81.70056,"poblacionTotal":4545},{"id":10,"nombre":"Tarapacá","dep":"Amazonas","pobVenMun":3,"porcentRegularMun":22.68804,"porcentAfiliadDep":6,"valorRank":973,"valorIndice":17.36025,"encuestado":false,"latitud":-2.8913064,"longitud":-69.7436479,"poblacionTotal":3179},{"id":11,"nombre":"El Charco","dep":"Nariño","pobVenMun":66,"porcentRegularMun":44.23733,"porcentAfiliadDep":37,"valorRank":972,"valorIndice":22.49577,"encuestado":false,"latitud":2.4691,"longitud":-78.09975,"poblacionTotal":21071},{"id":12,"nombre":"Leticia","dep":"Amazonas","pobVenMun":176,"porcentRegularMun":22.68804,"porcentAfiliadDep":6,"valorRank":971,"valorIndice":22.64653,"encuestado":false,"latitud":-4.21528,"longitud":-69.94056,"poblacionTotal":42844},{"id":13,"nombre":"Albán","dep":"Nariño","pobVenMun":161,"porcentRegularMun":44.23733,"porcentAfiliadDep":37,"valorRank":970,"valorIndice":23.66993,"encuestado":false,"latitud":1.4738296,"longitud":-77.1061149,"poblacionTotal":8197},{"id":14,"nombre":"Candelaria","dep":"Atlántico","pobVenMun":566,"porcentRegularMun":7.66442,"porcentAfiliadDep":51,"valorRank":969,"valorIndice":25.70221,"encuestado":false,"latitud":10.47387,"longitud":-74.88581,"poblacionTotal":15631},{"id":15,"nombre":"Barranquilla","dep":"Atlántico","pobVenMun":143672,"porcentRegularMun":7.66442,"porcentAfiliadDep":51,"valorRank":968,"valorIndice":26.10417,"encuestado":true,"latitud":10.96854,"longitud":-74.78132,"poblacionTotal":1120103},{"id":16,"nombre":"Santa Lucía","dep":"Atlántico","pobVenMun":977,"porcentRegularMun":7.66442,"porcentAfiliadDep":51,"valorRank":967,"valorIndice":26.92156,"encuestado":false,"latitud":10.33508,"longitud":-74.97623,"poblacionTotal":12650},{"id":17,"nombre":"Luruaco","dep":"Atlántico","pobVenMun":844,"porcentRegularMun":7.66442,"porcentAfiliadDep":51,"valorRank":966,"valorIndice":27.25023,"encuestado":false,"latitud":10.66667,"longitud":-75.16667,"poblacionTotal":27647},{"id":18,"nombre":"Manatí","dep":"Atlántico","pobVenMun":790,"porcentRegularMun":7.66442,"porcentAfiliadDep":51,"valorRank":965,"valorIndice":27.49365,"encuestado":false,"latitud":10.5,"longitud":-75,"poblacionTotal":19233},{"id":19,"nombre":"Ipiales","dep":"Nariño","pobVenMun":19783,"porcentRegularMun":44.23733,"porcentAfiliadDep":37,"valorRank":964,"valorIndice":27.62685,"encuestado":false,"latitud":0.83018,"longitud":-77.64959,"poblacionTotal":105517},{"id":20,"nombre":"Suan","dep":"Atlántico","pobVenMun":859,"porcentRegularMun":7.66442,"porcentAfiliadDep":51,"valorRank":963,"valorIndice":28.47275,"encuestado":false,"latitud":10.30214,"longitud":-74.91934,"poblacionTotal":11607},{"id":21,"nombre":"Repelón","dep":"Atlántico","pobVenMun":804,"porcentRegularMun":7.66442,"porcentAfiliadDep":51,"valorRank":962,"valorIndice":28.61028,"encuestado":false,"latitud":10.55,"longitud":-75.13333,"poblacionTotal":25467},{"id":22,"nombre":"Ponedera","dep":"Atlántico","pobVenMun":872,"porcentRegularMun":7.66442,"porcentAfiliadDep":51,"valorRank":961,"valorIndice":28.91588,"encuestado":false,"latitud":10.58325,"longitud":-74.80492,"poblacionTotal":23420},{"id":23,"nombre":"Campo de la Cruz","dep":"Atlántico","pobVenMun":1212,"porcentRegularMun":7.66442,"porcentAfiliadDep":51,"valorRank":960,"valorIndice":29.26326,"encuestado":false,"latitud":10.37844,"longitud":-74.90258,"poblacionTotal":22810},{"id":24,"nombre":"Piojó","dep":"Atlántico","pobVenMun":187,"porcentRegularMun":7.66442,"porcentAfiliadDep":51,"valorRank":959,"valorIndice":30.11822,"encuestado":false,"latitud":10.7487159,"longitud":-75.1130723,"poblacionTotal":5636},{"id":25,"nombre":"Sabanalarga","dep":"Atlántico","pobVenMun":4275,"porcentRegularMun":7.66442,"porcentAfiliadDep":51,"valorRank":958,"valorIndice":30.30003,"encuestado":false,"latitud":10.62962,"longitud":-74.92063,"poblacionTotal":92480},{"id":26,"nombre":"Palmar de Varela","dep":"Atlántico","pobVenMun":547,"porcentRegularMun":7.66442,"porcentAfiliadDep":51,"valorRank":957,"valorIndice":30.31557,"encuestado":false,"latitud":10.74055,"longitud":-74.75443,"poblacionTotal":27098},{"id":27,"nombre":"Baranoa","dep":"Atlántico","pobVenMun":2179,"porcentRegularMun":7.66442,"porcentAfiliadDep":51,"valorRank":956,"valorIndice":30.45411,"encuestado":false,"latitud":10.8,"longitud":-74.91667,"poblacionTotal":61527},{"id":28,"nombre":"Malambo","dep":"Atlántico","pobVenMun":5877,"porcentRegularMun":7.66442,"porcentAfiliadDep":51,"valorRank":955,"valorIndice":30.79707,"encuestado":true,"latitud":10.85953,"longitud":-74.77386,"poblacionTotal":119920},{"id":29,"nombre":"Puerto Colombia","dep":"Atlántico","pobVenMun":3309,"porcentRegularMun":7.66442,"porcentAfiliadDep":51,"valorRank":954,"valorIndice":31.35148,"encuestado":true,"latitud":11.01667,"longitud":-74.88333,"poblacionTotal":47899},{"id":30,"nombre":"Galapa","dep":"Atlántico","pobVenMun":3585,"porcentRegularMun":7.66442,"porcentAfiliadDep":51,"valorRank":953,"valorIndice":31.51988,"encuestado":false,"latitud":10.91667,"longitud":-74.83333,"poblacionTotal":55123},{"id":31,"nombre":"Juan de Acosta","dep":"Atlántico","pobVenMun":1080,"porcentRegularMun":7.66442,"porcentAfiliadDep":51,"valorRank":952,"valorIndice":32.1128,"encuestado":false,"latitud":10.83333,"longitud":-75.03333,"poblacionTotal":18828},{"id":32,"nombre":"Pasto","dep":"Nariño","pobVenMun":16536,"porcentRegularMun":44.23733,"porcentAfiliadDep":37,"valorRank":951,"valorIndice":33.51859,"encuestado":true,"latitud":1.21361,"longitud":-77.28111,"poblacionTotal":352326},{"id":33,"nombre":"Iles","dep":"Nariño","pobVenMun":22,"porcentRegularMun":44.23733,"porcentAfiliadDep":37,"valorRank":950,"valorIndice":35.0619,"encuestado":false,"latitud":1.001,"longitud":-77.55,"poblacionTotal":7112},{"id":34,"nombre":"Cucutilla","dep":"Norte de Santander","pobVenMun":371,"porcentRegularMun":78.34398999999999,"porcentAfiliadDep":35,"valorRank":949,"valorIndice":35.19214,"encuestado":false,"latitud":7.5,"longitud":-72.75,"poblacionTotal":7648},{"id":35,"nombre":"La Florida","dep":"Nariño","pobVenMun":12,"porcentRegularMun":44.23733,"porcentAfiliadDep":37,"valorRank":948,"valorIndice":35.33508,"encuestado":false,"latitud":1.81442,"longitud":-78.7492,"poblacionTotal":9047},{"id":36,"nombre":"Sabanagrande","dep":"Atlántico","pobVenMun":945,"porcentRegularMun":7.66442,"porcentAfiliadDep":51,"valorRank":947,"valorIndice":35.68025,"encuestado":false,"latitud":10.8,"longitud":-74.75,"poblacionTotal":32026},{"id":37,"nombre":"Berbeo","dep":"Boyacá","pobVenMun":3,"porcentRegularMun":94.75679,"porcentAfiliadDep":51,"valorRank":946,"valorIndice":36.41616,"encuestado":false,"latitud":5.18514,"longitud":-73.12606,"poblacionTotal":1453},{"id":38,"nombre":"Susacón","dep":"Boyacá","pobVenMun":7,"porcentRegularMun":94.75679,"porcentAfiliadDep":51,"valorRank":946,"valorIndice":36.41616,"encuestado":false,"latitud":6.23085,"longitud":-72.6946389,"poblacionTotal":2555},{"id":39,"nombre":"Sutatenza","dep":"Boyacá","pobVenMun":4,"porcentRegularMun":94.75679,"porcentAfiliadDep":51,"valorRank":946,"valorIndice":36.41616,"encuestado":false,"latitud":5.0238567,"longitud":-73.4771449,"poblacionTotal":3501},{"id":40,"nombre":"Almeida","dep":"Boyacá","pobVenMun":28,"porcentRegularMun":94.75679,"porcentAfiliadDep":51,"valorRank":946,"valorIndice":36.41616,"encuestado":false,"latitud":4.9708874,"longitud":-73.388014,"poblacionTotal":1582},{"id":41,"nombre":"Soledad","dep":"Atlántico","pobVenMun":33591,"porcentRegularMun":7.66442,"porcentAfiliadDep":51,"valorRank":945,"valorIndice":36.63228,"encuestado":false,"latitud":10.91843,"longitud":-74.76459,"poblacionTotal":535984},{"id":42,"nombre":"Usiacurí","dep":"Atlántico","pobVenMun":66,"porcentRegularMun":7.66442,"porcentAfiliadDep":51,"valorRank":944,"valorIndice":36.73929,"encuestado":false,"latitud":10.75,"longitud":-74.96667,"poblacionTotal":9543},{"id":43,"nombre":"El Peñón","dep":"Santander","pobVenMun":9,"porcentRegularMun":93.16243,"porcentAfiliadDep":54,"valorRank":943,"valorIndice":36.80584,"encuestado":false,"latitud":6.099,"longitud":-73.92835,"poblacionTotal":4097},{"id":44,"nombre":"Puerto Salgar","dep":"Cundinamarca","pobVenMun":1547,"porcentRegularMun":91.81374,"porcentAfiliadDep":49,"valorRank":942,"valorIndice":36.93999,"encuestado":false,"latitud":5.5,"longitud":-74.58333,"poblacionTotal":15019},{"id":45,"nombre":"Santo Tomás","dep":"Atlántico","pobVenMun":911,"porcentRegularMun":7.66442,"porcentAfiliadDep":51,"valorRank":941,"valorIndice":37.05355,"encuestado":false,"latitud":10.73184,"longitud":-74.80093,"poblacionTotal":28693},{"id":46,"nombre":"Juradó","dep":"Chocó","pobVenMun":24,"porcentRegularMun":100,"porcentAfiliadDep":32,"valorRank":940,"valorIndice":37.06468,"encuestado":false,"latitud":7.00425,"longitud":-77.65141,"poblacionTotal":4108},{"id":47,"nombre":"Nariño","dep":"Cundinamarca","pobVenMun":86,"porcentRegularMun":91.81374,"porcentAfiliadDep":49,"valorRank":939,"valorIndice":37.52751,"encuestado":false,"latitud":4.3982784,"longitud":-74.8338679,"poblacionTotal":2101},{"id":48,"nombre":"Aguada","dep":"Santander","pobVenMun":54,"porcentRegularMun":93.16243,"porcentAfiliadDep":54,"valorRank":938,"valorIndice":37.70012,"encuestado":false,"latitud":6.16019,"longitud":-73.52746,"poblacionTotal":1662},{"id":49,"nombre":"Santa Fé de Antioquia","dep":"Antioquia","pobVenMun":10204,"porcentRegularMun":83.41248999999999,"porcentAfiliadDep":56,"valorRank":937,"valorIndice":37.72036,"encuestado":false,"latitud":6.55687,"longitud":-75.82806,"poblacionTotal":23216},{"id":50,"nombre":"Puerto Arica","dep":"Amazonas","pobVenMun":1,"porcentRegularMun":22.68804,"porcentAfiliadDep":6,"valorRank":936,"valorIndice":37.80826,"encuestado":false,"latitud":-2.1495,"longitud":-71.7571744,"poblacionTotal":794},{"id":51,"nombre":"Puerto Nariño","dep":"Amazonas","pobVenMun":1,"porcentRegularMun":22.68804,"porcentAfiliadDep":6,"valorRank":936,"valorIndice":37.80826,"encuestado":false,"latitud":-3.7733,"longitud":-70.3819,"poblacionTotal":7896},{"id":52,"nombre":"Policarpa","dep":"Nariño","pobVenMun":559,"porcentRegularMun":44.23733,"porcentAfiliadDep":37,"valorRank":935,"valorIndice":37.85622,"encuestado":false,"latitud":1.73298,"longitud":-77.49181,"poblacionTotal":8149},{"id":53,"nombre":"Guadalupe","dep":"Antioquia","pobVenMun":56,"porcentRegularMun":83.41248999999999,"porcentAfiliadDep":56,"valorRank":934,"valorIndice":38.21851,"encuestado":false,"latitud":6.85582,"longitud":-75.2382,"poblacionTotal":5452},{"id":54,"nombre":"Gualmatán","dep":"Nariño","pobVenMun":2,"porcentRegularMun":44.23733,"porcentAfiliadDep":37,"valorRank":933,"valorIndice":38.34003,"encuestado":false,"latitud":0.95377,"longitud":-77.60934,"poblacionTotal":6290},{"id":55,"nombre":"San Felipe","dep":"Guainía","pobVenMun":5,"porcentRegularMun":91.91564,"porcentAfiliadDep":23,"valorRank":932,"valorIndice":38.43658,"encuestado":false,"latitud":2.0470888,"longitud":-67.6705131,"poblacionTotal":1411},{"id":56,"nombre":"Cumbitara","dep":"Nariño","pobVenMun":229,"porcentRegularMun":44.23733,"porcentAfiliadDep":37,"valorRank":931,"valorIndice":38.57622,"encuestado":false,"latitud":1.67681,"longitud":-77.59294,"poblacionTotal":5096},{"id":57,"nombre":"Polonuevo","dep":"Atlántico","pobVenMun":486,"porcentRegularMun":7.66442,"porcentAfiliadDep":51,"valorRank":930,"valorIndice":38.64244,"encuestado":false,"latitud":10.7807,"longitud":-74.85895,"poblacionTotal":16222},{"id":58,"nombre":"Villa Caro","dep":"Norte de Santander","pobVenMun":144,"porcentRegularMun":78.34398999999999,"porcentAfiliadDep":35,"valorRank":929,"valorIndice":39.0587,"encuestado":false,"latitud":7.91667,"longitud":-73,"poblacionTotal":4602},{"id":59,"nombre":"Jambaló","dep":"Cauca","pobVenMun":2,"porcentRegularMun":98.07932000000001,"porcentAfiliadDep":59,"valorRank":928,"valorIndice":39.14494,"encuestado":false,"latitud":2.85,"longitud":-76.31667,"poblacionTotal":16353},{"id":60,"nombre":"Zambrano","dep":"Bolívar","pobVenMun":120,"porcentRegularMun":89.36557,"porcentAfiliadDep":67,"valorRank":927,"valorIndice":39.20242,"encuestado":false,"latitud":9.75,"longitud":-74.83333,"poblacionTotal":11367},{"id":61,"nombre":"Cácota","dep":"Norte de Santander","pobVenMun":379,"porcentRegularMun":78.34398999999999,"porcentAfiliadDep":35,"valorRank":926,"valorIndice":39.28009,"encuestado":false,"latitud":7.25046,"longitud":-72.6783,"poblacionTotal":2733},{"id":62,"nombre":"La Esperanza","dep":"Norte de Santander","pobVenMun":181,"porcentRegularMun":78.34398999999999,"porcentAfiliadDep":35,"valorRank":925,"valorIndice":39.30674,"encuestado":false,"latitud":7.68603,"longitud":-73.40726,"poblacionTotal":11040},{"id":63,"nombre":"Puerto Santander","dep":"Norte de Santander","pobVenMun":5561,"porcentRegularMun":78.34398999999999,"porcentAfiliadDep":35,"valorRank":924,"valorIndice":39.33425,"encuestado":false,"latitud":8.31336,"longitud":-72.4415,"poblacionTotal":8139},{"id":64,"nombre":"Encino","dep":"Santander","pobVenMun":19,"porcentRegularMun":93.16243,"porcentAfiliadDep":54,"valorRank":923,"valorIndice":39.34745,"encuestado":false,"latitud":6.05336,"longitud":-73.06736,"poblacionTotal":2334},{"id":65,"nombre":"Herrán","dep":"Norte de Santander","pobVenMun":540,"porcentRegularMun":78.34398999999999,"porcentAfiliadDep":35,"valorRank":922,"valorIndice":39.36832,"encuestado":false,"latitud":7.4807,"longitud":-72.50059,"poblacionTotal":4702},{"id":66,"nombre":"Vergara","dep":"Cundinamarca","pobVenMun":67,"porcentRegularMun":91.81374,"porcentAfiliadDep":49,"valorRank":921,"valorIndice":39.50021,"encuestado":false,"latitud":5.16667,"longitud":-74.33333,"poblacionTotal":6063},{"id":67,"nombre":"Abriaquí","dep":"Antioquia","pobVenMun":39,"porcentRegularMun":83.41248999999999,"porcentAfiliadDep":56,"valorRank":920,"valorIndice":39.64618,"encuestado":false,"latitud":6.66667,"longitud":-76.08333,"poblacionTotal":2159},{"id":68,"nombre":"Tubará","dep":"Atlántico","pobVenMun":314,"porcentRegularMun":7.66442,"porcentAfiliadDep":51,"valorRank":919,"valorIndice":39.66156,"encuestado":false,"latitud":10.91667,"longitud":-74.95,"poblacionTotal":12718},{"id":69,"nombre":"Aldana","dep":"Nariño","pobVenMun":39,"porcentRegularMun":44.23733,"porcentAfiliadDep":37,"valorRank":918,"valorIndice":39.72692,"encuestado":false,"latitud":0.88162,"longitud":-77.70046,"poblacionTotal":6872},{"id":70,"nombre":"Inírida","dep":"Guainía","pobVenMun":6765,"porcentRegularMun":91.91564,"porcentAfiliadDep":23,"valorRank":917,"valorIndice":40.04652,"encuestado":false,"latitud":2.92409,"longitud":-68.93526,"poblacionTotal":30104},{"id":71,"nombre":"Acandí","dep":"Chocó","pobVenMun":192,"porcentRegularMun":100,"porcentAfiliadDep":32,"valorRank":916,"valorIndice":40.18968,"encuestado":false,"latitud":8.42468,"longitud":-77.2928,"poblacionTotal":12095},{"id":72,"nombre":"Alpujarra","dep":"Tolima","pobVenMun":69,"porcentRegularMun":99.72073,"porcentAfiliadDep":56,"valorRank":915,"valorIndice":40.49989,"encuestado":false,"latitud":3.39222,"longitud":-74.93271,"poblacionTotal":4091},{"id":73,"nombre":"Tibú","dep":"Norte de Santander","pobVenMun":22314,"porcentRegularMun":78.34398999999999,"porcentAfiliadDep":35,"valorRank":914,"valorIndice":40.57219,"encuestado":false,"latitud":8.63895,"longitud":-72.73583,"poblacionTotal":51399},{"id":74,"nombre":"Sapuyes","dep":"Nariño","pobVenMun":0,"porcentRegularMun":44.23733,"porcentAfiliadDep":37,"valorRank":913,"valorIndice":40.62072,"encuestado":false,"latitud":1.05954,"longitud":-77.70662,"poblacionTotal":7041},{"id":75,"nombre":"Nariño","dep":"Nariño","pobVenMun":0,"porcentRegularMun":44.23733,"porcentAfiliadDep":37,"valorRank":913,"valorIndice":40.62072,"encuestado":false,"latitud":1.2874036,"longitud":-77.3610293,"poblacionTotal":4007},{"id":76,"nombre":"La Tola","dep":"Nariño","pobVenMun":0,"porcentRegularMun":44.23733,"porcentAfiliadDep":37,"valorRank":913,"valorIndice":40.62072,"encuestado":false,"latitud":2.33584,"longitud":-78.20676,"poblacionTotal":5847},{"id":77,"nombre":"Ospina","dep":"Nariño","pobVenMun":0,"porcentRegularMun":44.23733,"porcentAfiliadDep":37,"valorRank":913,"valorIndice":40.62072,"encuestado":false,"latitud":1.05304,"longitud":-77.59873,"poblacionTotal":6488},{"id":78,"nombre":"Cumaribo","dep":"Vichada","pobVenMun":160,"porcentRegularMun":92.70424,"porcentAfiliadDep":35,"valorRank":912,"valorIndice":40.64322,"encuestado":false,"latitud":4.57565,"longitud":-69.59554,"poblacionTotal":43138},{"id":79,"nombre":"Almaguer","dep":"Cauca","pobVenMun":61,"porcentRegularMun":98.07932000000001,"porcentAfiliadDep":59,"valorRank":911,"valorIndice":40.76854,"encuestado":false,"latitud":1.91667,"longitud":-76.83333,"poblacionTotal":16523},{"id":80,"nombre":"López de Micay","dep":"Cauca","pobVenMun":272,"porcentRegularMun":98.07932000000001,"porcentAfiliadDep":59,"valorRank":910,"valorIndice":41.14758,"encuestado":false,"latitud":3.05,"longitud":-77.55,"poblacionTotal":15154},{"id":81,"nombre":"Bucarasica","dep":"Norte de Santander","pobVenMun":134,"porcentRegularMun":78.34398999999999,"porcentAfiliadDep":35,"valorRank":909,"valorIndice":41.19835,"encuestado":false,"latitud":8.08333,"longitud":-73,"poblacionTotal":4698},{"id":82,"nombre":"Lloró","dep":"Chocó","pobVenMun":6,"porcentRegularMun":100,"porcentAfiliadDep":32,"valorRank":908,"valorIndice":41.23134,"encuestado":false,"latitud":5.58333,"longitud":-76.41667,"poblacionTotal":8928},{"id":83,"nombre":"Ábrego","dep":"Norte de Santander","pobVenMun":1538,"porcentRegularMun":78.34398999999999,"porcentAfiliadDep":35,"valorRank":907,"valorIndice":41.47007,"encuestado":false,"latitud":8,"longitud":-73.2,"poblacionTotal":30191},{"id":84,"nombre":"Samaniego","dep":"Nariño","pobVenMun":756,"porcentRegularMun":44.23733,"porcentAfiliadDep":37,"valorRank":906,"valorIndice":41.48806,"encuestado":false,"latitud":1.41667,"longitud":-77.66667,"poblacionTotal":23727},{"id":85,"nombre":"Armenia","dep":"Antioquia","pobVenMun":145,"porcentRegularMun":83.41248999999999,"porcentAfiliadDep":56,"valorRank":905,"valorIndice":41.58409,"encuestado":false,"latitud":6.16667,"longitud":-75.83333,"poblacionTotal":3819},{"id":86,"nombre":"El Rosario","dep":"Nariño","pobVenMun":133,"porcentRegularMun":44.23733,"porcentAfiliadDep":37,"valorRank":904,"valorIndice":42.00018,"encuestado":false,"latitud":1.83333,"longitud":-77.33333,"poblacionTotal":6498},{"id":87,"nombre":"Cúcuta","dep":"Norte de Santander","pobVenMun":219415,"porcentRegularMun":78.34398999999999,"porcentAfiliadDep":35,"valorRank":903,"valorIndice":42.03095,"encuestado":true,"latitud":7.89391,"longitud":-72.50782,"poblacionTotal":629414},{"id":88,"nombre":"Sucre","dep":"Cauca","pobVenMun":119,"porcentRegularMun":98.07932000000001,"porcentAfiliadDep":59,"valorRank":902,"valorIndice":42.05787,"encuestado":false,"latitud":2.06182,"longitud":-76.91438,"poblacionTotal":6201},{"id":89,"nombre":"Cabrera","dep":"Cundinamarca","pobVenMun":56,"porcentRegularMun":91.81374,"porcentAfiliadDep":49,"valorRank":901,"valorIndice":42.14761,"encuestado":false,"latitud":3.87443,"longitud":-74.4719,"poblacionTotal":4512},{"id":90,"nombre":"San Francisco","dep":"Antioquia","pobVenMun":87,"porcentRegularMun":83.41248999999999,"porcentAfiliadDep":56,"valorRank":900,"valorIndice":42.32195,"encuestado":false,"latitud":5.85974,"longitud":-74.97901,"poblacionTotal":5365},{"id":91,"nombre":"Bogotá, D.C.","dep":"Bogotá, D.C.","pobVenMun":605376,"porcentRegularMun":68.19001999999999,"porcentAfiliadDep":38,"valorRank":899,"valorIndice":42.76435,"encuestado":true,"latitud":4.60971,"longitud":-74.08175,"poblacionTotal":7181469},{"id":92,"nombre":"Susa","dep":"Cundinamarca","pobVenMun":127,"porcentRegularMun":91.81374,"porcentAfiliadDep":49,"valorRank":898,"valorIndice":43.22643,"encuestado":false,"latitud":5.4528,"longitud":-73.814,"poblacionTotal":6073},{"id":93,"nombre":"Paime","dep":"Cundinamarca","pobVenMun":6,"porcentRegularMun":91.81374,"porcentAfiliadDep":49,"valorRank":897,"valorIndice":43.28936,"encuestado":false,"latitud":5.41667,"longitud":-74.16667,"poblacionTotal":3865},{"id":94,"nombre":"El Calvario","dep":"Meta","pobVenMun":17,"porcentRegularMun":95.81054,"porcentAfiliadDep":55,"valorRank":896,"valorIndice":43.46687,"encuestado":false,"latitud":4.35426,"longitud":-73.74431,"poblacionTotal":1575},{"id":95,"nombre":"Cacahual","dep":"Guainía","pobVenMun":39,"porcentRegularMun":91.91564,"porcentAfiliadDep":23,"valorRank":895,"valorIndice":43.60355,"encuestado":false,"latitud":3.5261485,"longitud":-67.4127,"poblacionTotal":839},{"id":96,"nombre":"Bajo Baudó","dep":"Chocó","pobVenMun":28,"porcentRegularMun":100,"porcentAfiliadDep":32,"valorRank":894,"valorIndice":43.6123,"encuestado":false,"latitud":4.90181,"longitud":-77.22771,"poblacionTotal":18561},{"id":97,"nombre":"San Sebastián","dep":"Cauca","pobVenMun":11,"porcentRegularMun":98.07932000000001,"porcentAfiliadDep":59,"valorRank":893,"valorIndice":43.64674,"encuestado":false,"latitud":1.91667,"longitud":-76.66667,"poblacionTotal":9806},{"id":98,"nombre":"Mutiscua","dep":"Norte de Santander","pobVenMun":179,"porcentRegularMun":78.34398999999999,"porcentAfiliadDep":35,"valorRank":892,"valorIndice":43.66502,"encuestado":false,"latitud":7.3001964,"longitud":-72.75195,"poblacionTotal":3891},{"id":99,"nombre":"Onzaga","dep":"Santander","pobVenMun":14,"porcentRegularMun":93.16243,"porcentAfiliadDep":54,"valorRank":891,"valorIndice":43.7045,"encuestado":false,"latitud":6.32438,"longitud":-72.8324,"poblacionTotal":3955},{"id":100,"nombre":"El Tarra","dep":"Norte de Santander","pobVenMun":3294,"porcentRegularMun":78.34398999999999,"porcentAfiliadDep":35,"valorRank":890,"valorIndice":43.85535,"encuestado":false,"latitud":8.65445,"longitud":-73.0531,"poblacionTotal":19075},{"id":101,"nombre":"Abejorral","dep":"Antioquia","pobVenMun":534,"porcentRegularMun":83.41248999999999,"porcentAfiliadDep":56,"valorRank":889,"valorIndice":43.87349,"encuestado":false,"latitud":5.75,"longitud":-75.41667,"poblacionTotal":17599},{"id":102,"nombre":"Condoto","dep":"Chocó","pobVenMun":18,"porcentRegularMun":100,"porcentAfiliadDep":32,"valorRank":888,"valorIndice":44.00912,"encuestado":false,"latitud":5.16667,"longitud":-76.5,"poblacionTotal":12251},{"id":103,"nombre":"Santander de Quilichao","dep":"Cauca","pobVenMun":5125,"porcentRegularMun":98.07932000000001,"porcentAfiliadDep":59,"valorRank":887,"valorIndice":44.09692,"encuestado":false,"latitud":3.00945,"longitud":-76.48494,"poblacionTotal":96032},{"id":104,"nombre":"Santa Rosa","dep":"Cauca","pobVenMun":10,"porcentRegularMun":98.07932000000001,"porcentAfiliadDep":59,"valorRank":887,"valorIndice":44.09692,"encuestado":false,"latitud":1.5,"longitud":-76.5,"poblacionTotal":5045},{"id":105,"nombre":"Caicedo","dep":"Antioquia","pobVenMun":376,"porcentRegularMun":83.41248999999999,"porcentAfiliadDep":56,"valorRank":886,"valorIndice":44.21148,"encuestado":false,"latitud":6.45,"longitud":-75.96667,"poblacionTotal":7018},{"id":106,"nombre":"Imués","dep":"Nariño","pobVenMun":95,"porcentRegularMun":44.23733,"porcentAfiliadDep":37,"valorRank":885,"valorIndice":44.22339,"encuestado":false,"latitud":1.05,"longitud":-77.5,"poblacionTotal":6351},{"id":107,"nombre":"Ubaque","dep":"Cundinamarca","pobVenMun":314,"porcentRegularMun":91.81374,"porcentAfiliadDep":49,"valorRank":884,"valorIndice":44.46019,"encuestado":false,"latitud":4.4838189,"longitud":-73.9365629,"poblacionTotal":6390},{"id":108,"nombre":"Jerusalén","dep":"Cundinamarca","pobVenMun":92,"porcentRegularMun":91.81374,"porcentAfiliadDep":49,"valorRank":883,"valorIndice":44.67931,"encuestado":false,"latitud":4.55678,"longitud":-74.70941,"poblacionTotal":2025},{"id":109,"nombre":"Labateca","dep":"Norte de Santander","pobVenMun":211,"porcentRegularMun":78.34398999999999,"porcentAfiliadDep":35,"valorRank":882,"valorIndice":44.70385,"encuestado":false,"latitud":7.24558,"longitud":-72.55286,"poblacionTotal":5550},{"id":110,"nombre":"Pamplonita","dep":"Norte de Santander","pobVenMun":457,"porcentRegularMun":78.34398999999999,"porcentAfiliadDep":35,"valorRank":881,"valorIndice":44.80743,"encuestado":false,"latitud":7.45814,"longitud":-72.65965,"poblacionTotal":4944},{"id":111,"nombre":"Barrancominas","dep":"Guainía","pobVenMun":18,"porcentRegularMun":91.91564,"porcentAfiliadDep":23,"valorRank":880,"valorIndice":44.83377,"encuestado":false,"latitud":3.4944415,"longitud":-69.8201059,"poblacionTotal":7207},{"id":112,"nombre":"Chinavita","dep":"Boyacá","pobVenMun":23,"porcentRegularMun":94.75679,"porcentAfiliadDep":51,"valorRank":879,"valorIndice":44.88384,"encuestado":false,"latitud":5.17915,"longitud":-73.37147,"poblacionTotal":2842},{"id":113,"nombre":"Betania","dep":"Antioquia","pobVenMun":225,"porcentRegularMun":83.41248999999999,"porcentAfiliadDep":56,"valorRank":878,"valorIndice":44.92908,"encuestado":false,"latitud":5.746017,"longitud":-75.973737,"poblacionTotal":8589},{"id":114,"nombre":"Bolívar","dep":"Santander","pobVenMun":110,"porcentRegularMun":93.16243,"porcentAfiliadDep":54,"valorRank":877,"valorIndice":45.14695,"encuestado":false,"latitud":6.09869,"longitud":-74.15038,"poblacionTotal":9567},{"id":115,"nombre":"Bahía Solano","dep":"Chocó","pobVenMun":40,"porcentRegularMun":100,"porcentAfiliadDep":32,"valorRank":876,"valorIndice":45.39801,"encuestado":false,"latitud":6.2252,"longitud":-77.39147,"poblacionTotal":9417},{"id":116,"nombre":"Ragonvalia","dep":"Norte de Santander","pobVenMun":504,"porcentRegularMun":78.34398999999999,"porcentAfiliadDep":35,"valorRank":875,"valorIndice":45.47235,"encuestado":false,"latitud":7.58333,"longitud":-72.5,"poblacionTotal":5420},{"id":117,"nombre":"Cáchira","dep":"Norte de Santander","pobVenMun":80,"porcentRegularMun":78.34398999999999,"porcentAfiliadDep":35,"valorRank":874,"valorIndice":45.4989,"encuestado":false,"latitud":7.75,"longitud":-73.16667,"poblacionTotal":8642},{"id":118,"nombre":"Quibdó","dep":"Chocó","pobVenMun":2059,"porcentRegularMun":100,"porcentAfiliadDep":32,"valorRank":873,"valorIndice":45.62263,"encuestado":false,"latitud":5.69472,"longitud":-76.66111,"poblacionTotal":120679},{"id":119,"nombre":"San José de la Montaña","dep":"Antioquia","pobVenMun":30,"porcentRegularMun":83.41248999999999,"porcentAfiliadDep":56,"valorRank":872,"valorIndice":45.64235,"encuestado":false,"latitud":6.82205,"longitud":-75.69757,"poblacionTotal":2952},{"id":120,"nombre":"Coromoro","dep":"Santander","pobVenMun":38,"porcentRegularMun":93.16243,"porcentAfiliadDep":54,"valorRank":871,"valorIndice":45.70148,"encuestado":false,"latitud":6.33333,"longitud":-73,"poblacionTotal":4816},{"id":121,"nombre":"Buenavista","dep":"Boyacá","pobVenMun":47,"porcentRegularMun":94.75679,"porcentAfiliadDep":51,"valorRank":870,"valorIndice":45.73962,"encuestado":false,"latitud":5.5,"longitud":-73.96667,"poblacionTotal":4240},{"id":122,"nombre":"Chinácota","dep":"Norte de Santander","pobVenMun":2443,"porcentRegularMun":78.34398999999999,"porcentAfiliadDep":35,"valorRank":869,"valorIndice":45.77881,"encuestado":false,"latitud":7.55543,"longitud":-72.60413,"poblacionTotal":16021},{"id":123,"nombre":"Tibaná","dep":"Boyacá","pobVenMun":155,"porcentRegularMun":94.75679,"porcentAfiliadDep":51,"valorRank":868,"valorIndice":46.154,"encuestado":false,"latitud":5.3167,"longitud":-73.4,"poblacionTotal":7966},{"id":124,"nombre":"Gachetá","dep":"Cundinamarca","pobVenMun":183,"porcentRegularMun":91.81374,"porcentAfiliadDep":49,"valorRank":867,"valorIndice":46.30283,"encuestado":false,"latitud":4.91667,"longitud":-73.66667,"poblacionTotal":8203},{"id":125,"nombre":"Albania","dep":"Santander","pobVenMun":25,"porcentRegularMun":93.16243,"porcentAfiliadDep":54,"valorRank":866,"valorIndice":46.46397,"encuestado":false,"latitud":5.77064,"longitud":-73.86458,"poblacionTotal":3317},{"id":126,"nombre":"Cumbal","dep":"Nariño","pobVenMun":22,"porcentRegularMun":44.23733,"porcentAfiliadDep":37,"valorRank":865,"valorIndice":46.53533,"encuestado":false,"latitud":0.91667,"longitud":-77.91667,"poblacionTotal":32672},{"id":127,"nombre":"La Playa","dep":"Norte de Santander","pobVenMun":114,"porcentRegularMun":78.34398999999999,"porcentAfiliadDep":35,"valorRank":864,"valorIndice":46.60377,"encuestado":false,"latitud":8.25,"longitud":-73.16667,"poblacionTotal":7237},{"id":128,"nombre":"Villa del Rosario","dep":"Norte de Santander","pobVenMun":38413,"porcentRegularMun":78.34398999999999,"porcentAfiliadDep":35,"valorRank":863,"valorIndice":46.74893,"encuestado":false,"latitud":7.83389,"longitud":-72.47417,"poblacionTotal":93735},{"id":129,"nombre":"Teorama","dep":"Norte de Santander","pobVenMun":945,"porcentRegularMun":78.34398999999999,"porcentAfiliadDep":35,"valorRank":862,"valorIndice":46.76394,"encuestado":false,"latitud":8.75,"longitud":-73.16667,"poblacionTotal":12727},{"id":130,"nombre":"El Peñón","dep":"Cundinamarca","pobVenMun":46,"porcentRegularMun":91.81374,"porcentAfiliadDep":49,"valorRank":861,"valorIndice":46.76424,"encuestado":false,"latitud":5.2486225,"longitud":-74.2929049,"poblacionTotal":3458},{"id":131,"nombre":"Quípama","dep":"Boyacá","pobVenMun":32,"porcentRegularMun":94.75679,"porcentAfiliadDep":51,"valorRank":860,"valorIndice":47.06692,"encuestado":false,"latitud":5.53073,"longitud":-74.176906,"poblacionTotal":4194},{"id":132,"nombre":"Tenza","dep":"Boyacá","pobVenMun":9,"porcentRegularMun":94.75679,"porcentAfiliadDep":51,"valorRank":859,"valorIndice":47.23598,"encuestado":false,"latitud":5.0773109,"longitud":-73.4240509,"poblacionTotal":3461},{"id":133,"nombre":"Cuaspud Carlosama","dep":"Nariño","pobVenMun":16,"porcentRegularMun":44.23733,"porcentAfiliadDep":37,"valorRank":858,"valorIndice":47.35486,"encuestado":false,"latitud":0.87981,"longitud":-77.77851,"poblacionTotal":8975},{"id":134,"nombre":"Santo Domingo","dep":"Antioquia","pobVenMun":568,"porcentRegularMun":83.41248999999999,"porcentAfiliadDep":56,"valorRank":857,"valorIndice":47.3753,"encuestado":false,"latitud":6.47347,"longitud":-75.15464,"poblacionTotal":9786},{"id":135,"nombre":"Agua de Dios","dep":"Cundinamarca","pobVenMun":267,"porcentRegularMun":91.81374,"porcentAfiliadDep":49,"valorRank":856,"valorIndice":47.50998,"encuestado":false,"latitud":4.35842,"longitud":-74.69002,"poblacionTotal":10742},{"id":136,"nombre":"La Unión","dep":"Nariño","pobVenMun":485,"porcentRegularMun":44.23733,"porcentAfiliadDep":37,"valorRank":855,"valorIndice":47.52214,"encuestado":false,"latitud":1.62689,"longitud":-77.15916,"poblacionTotal":28659},{"id":137,"nombre":"Bojacá","dep":"Cundinamarca","pobVenMun":402,"porcentRegularMun":91.81374,"porcentAfiliadDep":49,"valorRank":854,"valorIndice":47.58369,"encuestado":false,"latitud":4.7336,"longitud":-74.3422,"poblacionTotal":9674},{"id":138,"nombre":"Timbiquí","dep":"Cauca","pobVenMun":81,"porcentRegularMun":98.07932000000001,"porcentAfiliadDep":59,"valorRank":853,"valorIndice":47.70392,"encuestado":false,"latitud":2.76456,"longitud":-77.63351,"poblacionTotal":21618},{"id":139,"nombre":"Manta","dep":"Cundinamarca","pobVenMun":27,"porcentRegularMun":91.81374,"porcentAfiliadDep":49,"valorRank":852,"valorIndice":47.72949,"encuestado":false,"latitud":5.0094445,"longitud":-73.5451373,"poblacionTotal":3354},{"id":140,"nombre":"Ricaurte","dep":"Nariño","pobVenMun":88,"porcentRegularMun":44.23733,"porcentAfiliadDep":37,"valorRank":851,"valorIndice":47.76462,"encuestado":false,"latitud":1.16667,"longitud":-78.16667,"poblacionTotal":18067},{"id":141,"nombre":"Gramalote","dep":"Norte de Santander","pobVenMun":198,"porcentRegularMun":78.34398999999999,"porcentAfiliadDep":35,"valorRank":850,"valorIndice":48.03782,"encuestado":false,"latitud":7.87847,"longitud":-72.82202,"poblacionTotal":6408},{"id":142,"nombre":"Santacruz","dep":"Nariño","pobVenMun":78,"porcentRegularMun":44.23733,"porcentAfiliadDep":37,"valorRank":849,"valorIndice":48.04831,"encuestado":false,"latitud":1.33333,"longitud":-77.7,"poblacionTotal":9869},{"id":143,"nombre":"Arboleda","dep":"Nariño","pobVenMun":13,"porcentRegularMun":44.23733,"porcentAfiliadDep":37,"valorRank":849,"valorIndice":48.04831,"encuestado":false,"latitud":1.48348,"longitud":-77.2150912,"poblacionTotal":7626},{"id":144,"nombre":"El Tambo","dep":"Nariño","pobVenMun":13,"porcentRegularMun":44.23733,"porcentAfiliadDep":37,"valorRank":849,"valorIndice":48.04831,"encuestado":false,"latitud":1.47789,"longitud":-77.43868,"poblacionTotal":12457},{"id":145,"nombre":"La Llanada","dep":"Nariño","pobVenMun":165,"porcentRegularMun":44.23733,"porcentAfiliadDep":37,"valorRank":848,"valorIndice":48.06512,"encuestado":false,"latitud":1.51233,"longitud":-77.70535,"poblacionTotal":5321},{"id":146,"nombre":"Lourdes","dep":"Norte de Santander","pobVenMun":248,"porcentRegularMun":78.34398999999999,"porcentAfiliadDep":35,"valorRank":847,"valorIndice":48.17765,"encuestado":false,"latitud":7.96667,"longitud":-72.83333,"poblacionTotal":3609},{"id":147,"nombre":"Quipile","dep":"Cundinamarca","pobVenMun":63,"porcentRegularMun":91.81374,"porcentAfiliadDep":49,"valorRank":846,"valorIndice":48.23693,"encuestado":false,"latitud":4.75,"longitud":-74.58333,"poblacionTotal":6114},{"id":148,"nombre":"Hacarí","dep":"Norte de Santander","pobVenMun":457,"porcentRegularMun":78.34398999999999,"porcentAfiliadDep":35,"valorRank":845,"valorIndice":48.31967,"encuestado":false,"latitud":8.32333,"longitud":-73.14889,"poblacionTotal":9745},{"id":149,"nombre":"Pamplona","dep":"Norte de Santander","pobVenMun":4868,"porcentRegularMun":78.34398999999999,"porcentAfiliadDep":35,"valorRank":844,"valorIndice":48.32582,"encuestado":false,"latitud":7.37565,"longitud":-72.64795,"poblacionTotal":45521},{"id":150,"nombre":"Guachucal","dep":"Nariño","pobVenMun":18,"porcentRegularMun":44.23733,"porcentAfiliadDep":37,"valorRank":843,"valorIndice":48.35651,"encuestado":false,"latitud":1,"longitud":-77.75,"poblacionTotal":18845},{"id":151,"nombre":"Olaya","dep":"Antioquia","pobVenMun":123,"porcentRegularMun":83.41248999999999,"porcentAfiliadDep":56,"valorRank":842,"valorIndice":48.36372,"encuestado":false,"latitud":6.60351,"longitud":-75.78612,"poblacionTotal":2719},{"id":152,"nombre":"San Mateo","dep":"Boyacá","pobVenMun":36,"porcentRegularMun":94.75679,"porcentAfiliadDep":51,"valorRank":841,"valorIndice":48.58846,"encuestado":false,"latitud":6.37704,"longitud":-72.57797,"poblacionTotal":3307},{"id":153,"nombre":"Coper","dep":"Boyacá","pobVenMun":4,"porcentRegularMun":94.75679,"porcentAfiliadDep":51,"valorRank":841,"valorIndice":48.58846,"encuestado":false,"latitud":5.47526,"longitud":-74.0475466,"poblacionTotal":3019},{"id":154,"nombre":"Sativasur","dep":"Boyacá","pobVenMun":12,"porcentRegularMun":94.75679,"porcentAfiliadDep":51,"valorRank":841,"valorIndice":48.58846,"encuestado":false,"latitud":6.093447,"longitud":-72.7145921,"poblacionTotal":1048},{"id":155,"nombre":"Puerto Carreño","dep":"Vichada","pobVenMun":10869,"porcentRegularMun":92.70424,"porcentAfiliadDep":35,"valorRank":840,"valorIndice":48.63044,"encuestado":false,"latitud":6.18903,"longitud":-67.48588,"poblacionTotal":19788},{"id":156,"nombre":"Toledo","dep":"Norte de Santander","pobVenMun":725,"porcentRegularMun":78.34398999999999,"porcentAfiliadDep":35,"valorRank":839,"valorIndice":48.76213,"encuestado":false,"latitud":7.3,"longitud":-72.25,"poblacionTotal":14962},{"id":157,"nombre":"Chitagá","dep":"Norte de Santander","pobVenMun":894,"porcentRegularMun":78.34398999999999,"porcentAfiliadDep":35,"valorRank":838,"valorIndice":48.86903,"encuestado":false,"latitud":7.03202,"longitud":-72.55073,"poblacionTotal":10554},{"id":158,"nombre":"Sabanalarga","dep":"Antioquia","pobVenMun":23,"porcentRegularMun":83.41248999999999,"porcentAfiliadDep":56,"valorRank":837,"valorIndice":48.89859,"encuestado":false,"latitud":6.91667,"longitud":-75.8,"poblacionTotal":7833},{"id":159,"nombre":"San Fernando","dep":"Bolívar","pobVenMun":302,"porcentRegularMun":89.36557,"porcentAfiliadDep":67,"valorRank":836,"valorIndice":48.92151,"encuestado":false,"latitud":9.07705,"longitud":-74.41177,"poblacionTotal":9776},{"id":160,"nombre":"Bituima","dep":"Cundinamarca","pobVenMun":28,"porcentRegularMun":91.81374,"porcentAfiliadDep":49,"valorRank":835,"valorIndice":48.9981,"encuestado":false,"latitud":4.87282,"longitud":-74.5423895,"poblacionTotal":2224},{"id":161,"nombre":"Silos","dep":"Norte de Santander","pobVenMun":572,"porcentRegularMun":78.34398999999999,"porcentAfiliadDep":35,"valorRank":834,"valorIndice":49.03382,"encuestado":false,"latitud":7.2,"longitud":-72.75,"poblacionTotal":5713},{"id":162,"nombre":"Istmina","dep":"Chocó","pobVenMun":308,"porcentRegularMun":100,"porcentAfiliadDep":32,"valorRank":833,"valorIndice":49.29411,"encuestado":false,"latitud":5.16054,"longitud":-76.68397,"poblacionTotal":28087},{"id":163,"nombre":"Sardinata","dep":"Norte de Santander","pobVenMun":2332,"porcentRegularMun":78.34398999999999,"porcentAfiliadDep":35,"valorRank":832,"valorIndice":49.38679,"encuestado":false,"latitud":8.23424,"longitud":-72.82039,"poblacionTotal":21243},{"id":164,"nombre":"Unguía","dep":"Chocó","pobVenMun":117,"porcentRegularMun":100,"porcentAfiliadDep":32,"valorRank":831,"valorIndice":49.56468,"encuestado":false,"latitud":8.11118,"longitud":-77.10916,"poblacionTotal":12192},{"id":165,"nombre":"Nuquí","dep":"Chocó","pobVenMun":9,"porcentRegularMun":100,"porcentAfiliadDep":32,"valorRank":831,"valorIndice":49.56468,"encuestado":false,"latitud":5.67014,"longitud":-77.28753,"poblacionTotal":3456},{"id":166,"nombre":"Solita","dep":"Caquetá","pobVenMun":8,"porcentRegularMun":100,"porcentAfiliadDep":48,"valorRank":830,"valorIndice":49.60508,"encuestado":false,"latitud":0.96979,"longitud":-75.65532,"poblacionTotal":5431},{"id":167,"nombre":"Tibirita","dep":"Cundinamarca","pobVenMun":10,"porcentRegularMun":91.81374,"porcentAfiliadDep":49,"valorRank":829,"valorIndice":49.68315,"encuestado":false,"latitud":5.052433,"longitud":-73.5072209,"poblacionTotal":2439},{"id":168,"nombre":"Albán","dep":"Cundinamarca","pobVenMun":161,"porcentRegularMun":91.81374,"porcentAfiliadDep":49,"valorRank":828,"valorIndice":49.89164,"encuestado":false,"latitud":4.88449,"longitud":-74.46907,"poblacionTotal":6136},{"id":169,"nombre":"Chima","dep":"Santander","pobVenMun":40,"porcentRegularMun":93.16243,"porcentAfiliadDep":54,"valorRank":827,"valorIndice":50.08576,"encuestado":false,"latitud":6.36289,"longitud":-73.42534,"poblacionTotal":2364},{"id":170,"nombre":"Cravo Norte","dep":"Arauca","pobVenMun":440,"porcentRegularMun":90.84863,"porcentAfiliadDep":41,"valorRank":826,"valorIndice":50.30394,"encuestado":false,"latitud":6.3875,"longitud":-70.15472,"poblacionTotal":3644},{"id":171,"nombre":"Santa Sofía","dep":"Boyacá","pobVenMun":347,"porcentRegularMun":94.75679,"porcentAfiliadDep":51,"valorRank":825,"valorIndice":50.30731,"encuestado":false,"latitud":5.7139604,"longitud":-73.6072184,"poblacionTotal":2959},{"id":172,"nombre":"Arauca","dep":"Arauca","pobVenMun":49011,"porcentRegularMun":90.84863,"porcentAfiliadDep":41,"valorRank":824,"valorIndice":50.3135,"encuestado":false,"latitud":7.08471,"longitud":-70.75908,"poblacionTotal":75735},{"id":173,"nombre":"Río de Oro","dep":"Cesar","pobVenMun":443,"porcentRegularMun":91.28079,"porcentAfiliadDep":55,"valorRank":823,"valorIndice":50.41255,"encuestado":false,"latitud":8.17879,"longitud":-73.51218,"poblacionTotal":14408},{"id":174,"nombre":"Yacopí","dep":"Cundinamarca","pobVenMun":41,"porcentRegularMun":91.81374,"porcentAfiliadDep":49,"valorRank":822,"valorIndice":50.50187,"encuestado":false,"latitud":5.66667,"longitud":-74.41667,"poblacionTotal":10887},{"id":175,"nombre":"Olaya Herrera","dep":"Nariño","pobVenMun":56,"porcentRegularMun":44.23733,"porcentAfiliadDep":37,"valorRank":821,"valorIndice":50.57444,"encuestado":false,"latitud":2.21927,"longitud":-78.32235,"poblacionTotal":21415},{"id":176,"nombre":"Riosucio","dep":"Chocó","pobVenMun":334,"porcentRegularMun":100,"porcentAfiliadDep":32,"valorRank":820,"valorIndice":50.71238,"encuestado":false,"latitud":7.41667,"longitud":-77.16667,"poblacionTotal":48257},{"id":177,"nombre":"Santiago","dep":"Norte de Santander","pobVenMun":111,"porcentRegularMun":78.34398999999999,"porcentAfiliadDep":35,"valorRank":819,"valorIndice":50.71566,"encuestado":false,"latitud":7.8693,"longitud":-72.73753,"poblacionTotal":3087},{"id":178,"nombre":"Tona","dep":"Santander","pobVenMun":599,"porcentRegularMun":93.16243,"porcentAfiliadDep":54,"valorRank":818,"valorIndice":50.99474,"encuestado":false,"latitud":7.15727,"longitud":-72.96559,"poblacionTotal":6680},{"id":179,"nombre":"San José de Miranda","dep":"Santander","pobVenMun":51,"porcentRegularMun":93.16243,"porcentAfiliadDep":54,"valorRank":817,"valorIndice":51.00896,"encuestado":false,"latitud":6.63051,"longitud":-72.73155,"poblacionTotal":4153},{"id":180,"nombre":"Convención","dep":"Norte de Santander","pobVenMun":1078,"porcentRegularMun":78.34398999999999,"porcentAfiliadDep":35,"valorRank":816,"valorIndice":51.01114,"encuestado":false,"latitud":8.82242,"longitud":-73.2285,"poblacionTotal":18112},{"id":181,"nombre":"Maripí","dep":"Boyacá","pobVenMun":20,"porcentRegularMun":94.75679,"porcentAfiliadDep":51,"valorRank":815,"valorIndice":51.02292,"encuestado":false,"latitud":5.55733,"longitud":-74.0544,"poblacionTotal":5354},{"id":182,"nombre":"Fortul","dep":"Arauca","pobVenMun":2616,"porcentRegularMun":90.84863,"porcentAfiliadDep":41,"valorRank":814,"valorIndice":51.06499,"encuestado":false,"latitud":6.74611,"longitud":-71.85667,"poblacionTotal":17492},{"id":183,"nombre":"Bojayá","dep":"Chocó","pobVenMun":11,"porcentRegularMun":100,"porcentAfiliadDep":32,"valorRank":813,"valorIndice":51.07983,"encuestado":false,"latitud":6.5,"longitud":-77.1,"poblacionTotal":11933},{"id":184,"nombre":"Arboledas","dep":"Norte de Santander","pobVenMun":263,"porcentRegularMun":78.34398999999999,"porcentAfiliadDep":35,"valorRank":812,"valorIndice":51.2777,"encuestado":false,"latitud":7.66667,"longitud":-72.75,"poblacionTotal":8202},{"id":185,"nombre":"San Miguel","dep":"Santander","pobVenMun":76,"porcentRegularMun":93.16243,"porcentAfiliadDep":54,"valorRank":811,"valorIndice":51.42011,"encuestado":false,"latitud":6.55716,"longitud":-72.66509,"poblacionTotal":2433},{"id":186,"nombre":"Zipacón","dep":"Cundinamarca","pobVenMun":190,"porcentRegularMun":91.81374,"porcentAfiliadDep":49,"valorRank":810,"valorIndice":51.44985,"encuestado":false,"latitud":4.74268,"longitud":-74.41186,"poblacionTotal":4211},{"id":187,"nombre":"Los Patios","dep":"Norte de Santander","pobVenMun":12088,"porcentRegularMun":78.34398999999999,"porcentAfiliadDep":35,"valorRank":809,"valorIndice":51.55128,"encuestado":true,"latitud":7.83793,"longitud":-72.5037,"poblacionTotal":81411},{"id":188,"nombre":"San Joaquín","dep":"Santander","pobVenMun":13,"porcentRegularMun":93.16243,"porcentAfiliadDep":54,"valorRank":808,"valorIndice":51.6645,"encuestado":false,"latitud":6.4278031,"longitud":-72.8706569,"poblacionTotal":2167},{"id":189,"nombre":"Sáchica","dep":"Boyacá","pobVenMun":586,"porcentRegularMun":94.75679,"porcentAfiliadDep":51,"valorRank":807,"valorIndice":51.9535,"encuestado":false,"latitud":5.5830595,"longitud":-73.5477249,"poblacionTotal":4823},{"id":190,"nombre":"Pulí","dep":"Cundinamarca","pobVenMun":23,"porcentRegularMun":91.81374,"porcentAfiliadDep":49,"valorRank":806,"valorIndice":51.97657,"encuestado":false,"latitud":4.67855,"longitud":-74.69526,"poblacionTotal":2525},{"id":191,"nombre":"El Zulia","dep":"Norte de Santander","pobVenMun":3691,"porcentRegularMun":78.34398999999999,"porcentAfiliadDep":35,"valorRank":805,"valorIndice":52.15162,"encuestado":false,"latitud":8.06543,"longitud":-72.65986,"poblacionTotal":26019},{"id":192,"nombre":"Santa Ana","dep":"Magdalena","pobVenMun":468,"porcentRegularMun":91.36410000000001,"porcentAfiliadDep":51,"valorRank":804,"valorIndice":52.15352,"encuestado":false,"latitud":9.31667,"longitud":-74.58333,"poblacionTotal":22723},{"id":193,"nombre":"Bochalema","dep":"Norte de Santander","pobVenMun":664,"porcentRegularMun":78.34398999999999,"porcentAfiliadDep":35,"valorRank":803,"valorIndice":52.3278,"encuestado":false,"latitud":7.60217,"longitud":-72.68839,"poblacionTotal":6972},{"id":194,"nombre":"San Calixto","dep":"Norte de Santander","pobVenMun":307,"porcentRegularMun":78.34398999999999,"porcentAfiliadDep":35,"valorRank":802,"valorIndice":52.33022,"encuestado":false,"latitud":8.44179,"longitud":-73.16598,"poblacionTotal":9961},{"id":195,"nombre":"Mosquera","dep":"Nariño","pobVenMun":9,"porcentRegularMun":44.23733,"porcentAfiliadDep":37,"valorRank":801,"valorIndice":52.3631,"encuestado":false,"latitud":2.49139,"longitud":-78.44307,"poblacionTotal":10206},{"id":196,"nombre":"Zapayán","dep":"Magdalena","pobVenMun":66,"porcentRegularMun":91.36410000000001,"porcentAfiliadDep":51,"valorRank":800,"valorIndice":52.36726,"encuestado":false,"latitud":10.11846,"longitud":-74.69143,"poblacionTotal":8606},{"id":197,"nombre":"Unión Panamericana","dep":"Chocó","pobVenMun":97,"porcentRegularMun":100,"porcentAfiliadDep":32,"valorRank":799,"valorIndice":52.48564,"encuestado":false,"latitud":5.278187,"longitud":-76.615518,"poblacionTotal":6590},{"id":198,"nombre":"Santa Bárbara de Pinto","dep":"Magdalena","pobVenMun":94,"porcentRegularMun":91.36410000000001,"porcentAfiliadDep":51,"valorRank":798,"valorIndice":52.49065,"encuestado":false,"latitud":9.52107,"longitud":-74.64912,"poblacionTotal":9345},{"id":199,"nombre":"Toledo","dep":"Antioquia","pobVenMun":26,"porcentRegularMun":83.41248999999999,"porcentAfiliadDep":56,"valorRank":797,"valorIndice":52.57911,"encuestado":false,"latitud":7,"longitud":-75.7,"poblacionTotal":4930},{"id":200,"nombre":"El Molino","dep":"La Guajira","pobVenMun":794,"porcentRegularMun":86.88991,"porcentAfiliadDep":53,"valorRank":796,"valorIndice":52.632,"encuestado":false,"latitud":10.59462,"longitud":-72.8539,"poblacionTotal":6963},{"id":201,"nombre":"La Peña","dep":"Cundinamarca","pobVenMun":47,"porcentRegularMun":91.81374,"porcentAfiliadDep":49,"valorRank":795,"valorIndice":52.64198,"encuestado":false,"latitud":5.25,"longitud":-74.41667,"poblacionTotal":5429},{"id":202,"nombre":"Cerro de San Antonio","dep":"Magdalena","pobVenMun":62,"porcentRegularMun":91.36410000000001,"porcentAfiliadDep":51,"valorRank":794,"valorIndice":52.67124,"encuestado":false,"latitud":10.3270955,"longitud":-74.8738314,"poblacionTotal":9225},{"id":203,"nombre":"El Retorno","dep":"Guaviare","pobVenMun":124,"porcentRegularMun":99.26393,"porcentAfiliadDep":47,"valorRank":793,"valorIndice":52.75474,"encuestado":false,"latitud":1.92608,"longitud":-71.57561,"poblacionTotal":11340},{"id":204,"nombre":"Chachagüí","dep":"Nariño","pobVenMun":110,"porcentRegularMun":44.23733,"porcentAfiliadDep":37,"valorRank":792,"valorIndice":52.76376,"encuestado":false,"latitud":1.43754,"longitud":-77.31678,"poblacionTotal":12419},{"id":205,"nombre":"Belén","dep":"Nariño","pobVenMun":10,"porcentRegularMun":44.23733,"porcentAfiliadDep":37,"valorRank":792,"valorIndice":52.76376,"encuestado":false,"latitud":1.595516,"longitud":-77.0190204,"poblacionTotal":5968},{"id":206,"nombre":"Tangua","dep":"Nariño","pobVenMun":31,"porcentRegularMun":44.23733,"porcentAfiliadDep":37,"valorRank":791,"valorIndice":52.88008,"encuestado":false,"latitud":1.09189,"longitud":-77.38645,"poblacionTotal":10331},{"id":207,"nombre":"Támara","dep":"Casanare","pobVenMun":58,"porcentRegularMun":94.85341000000001,"porcentAfiliadDep":53,"valorRank":790,"valorIndice":52.8894,"encuestado":false,"latitud":5.88972,"longitud":-72.21306,"poblacionTotal":6317},{"id":208,"nombre":"El Litoral del San Juan","dep":"Chocó","pobVenMun":5,"porcentRegularMun":100,"porcentAfiliadDep":32,"valorRank":789,"valorIndice":52.89801,"encuestado":false,"latitud":4.2507,"longitud":-76.96926,"poblacionTotal":11579},{"id":209,"nombre":"Soatá","dep":"Boyacá","pobVenMun":303,"porcentRegularMun":94.75679,"porcentAfiliadDep":51,"valorRank":788,"valorIndice":52.96727,"encuestado":false,"latitud":6.3333459,"longitud":-72.6881493,"poblacionTotal":8538},{"id":210,"nombre":"Tame","dep":"Arauca","pobVenMun":8173,"porcentRegularMun":90.84863,"porcentAfiliadDep":41,"valorRank":787,"valorIndice":53.03018,"encuestado":false,"latitud":6.39833,"longitud":-71.78389,"poblacionTotal":40311},{"id":211,"nombre":"Suratá","dep":"Santander","pobVenMun":71,"porcentRegularMun":93.16243,"porcentAfiliadDep":54,"valorRank":786,"valorIndice":53.12943,"encuestado":false,"latitud":7.51696,"longitud":-73.05902,"poblacionTotal":3520},{"id":212,"nombre":"Cartagena del Chairá","dep":"Caquetá","pobVenMun":53,"porcentRegularMun":100,"porcentAfiliadDep":48,"valorRank":785,"valorIndice":53.14281,"encuestado":false,"latitud":0.85246,"longitud":-74.6059,"poblacionTotal":27939},{"id":213,"nombre":"Chiquinquirá","dep":"Boyacá","pobVenMun":1539,"porcentRegularMun":94.75679,"porcentAfiliadDep":51,"valorRank":784,"valorIndice":53.31026,"encuestado":false,"latitud":5.61363,"longitud":-73.83848,"poblacionTotal":52321},{"id":214,"nombre":"Ancuya","dep":"Nariño","pobVenMun":36,"porcentRegularMun":44.23733,"porcentAfiliadDep":37,"valorRank":783,"valorIndice":53.36475,"encuestado":false,"latitud":1.26538,"longitud":-77.53258,"poblacionTotal":7481},{"id":215,"nombre":"Pijiño del Carmen","dep":"Magdalena","pobVenMun":211,"porcentRegularMun":91.36410000000001,"porcentAfiliadDep":51,"valorRank":782,"valorIndice":53.3807,"encuestado":false,"latitud":9.53528,"longitud":-74.11992,"poblacionTotal":11071},{"id":216,"nombre":"Chía","dep":"Cundinamarca","pobVenMun":15620,"porcentRegularMun":91.81374,"porcentAfiliadDep":49,"valorRank":781,"valorIndice":53.39785,"encuestado":false,"latitud":4.84452,"longitud":-74.05848,"poblacionTotal":129613},{"id":217,"nombre":"La Primavera","dep":"Vichada","pobVenMun":354,"porcentRegularMun":92.70424,"porcentAfiliadDep":35,"valorRank":780,"valorIndice":53.41362,"encuestado":false,"latitud":5.51465,"longitud":-69.49786,"poblacionTotal":9690},{"id":218,"nombre":"Cachipay","dep":"Cundinamarca","pobVenMun":341,"porcentRegularMun":91.81374,"porcentAfiliadDep":49,"valorRank":779,"valorIndice":53.43786,"encuestado":false,"latitud":4.60029,"longitud":-74.441745,"poblacionTotal":9274},{"id":219,"nombre":"Villanueva","dep":"La Guajira","pobVenMun":2106,"porcentRegularMun":86.88991,"porcentAfiliadDep":53,"valorRank":778,"valorIndice":53.45912,"encuestado":false,"latitud":10.58333,"longitud":-73,"poblacionTotal":24996},{"id":220,"nombre":"San Andrés de Sotavento","dep":"Córdoba","pobVenMun":152,"porcentRegularMun":93.37863,"porcentAfiliadDep":56,"valorRank":777,"valorIndice":53.49802,"encuestado":false,"latitud":9.16667,"longitud":-75.55,"poblacionTotal":42046},{"id":221,"nombre":"Ciénega","dep":"Boyacá","pobVenMun":17,"porcentRegularMun":94.75679,"porcentAfiliadDep":51,"valorRank":776,"valorIndice":53.60058,"encuestado":false,"latitud":5.4091638,"longitud":-73.2984564,"poblacionTotal":4492},{"id":222,"nombre":"Anapoima","dep":"Cundinamarca","pobVenMun":565,"porcentRegularMun":91.81374,"porcentAfiliadDep":49,"valorRank":775,"valorIndice":53.62976,"encuestado":false,"latitud":4.5503,"longitud":-74.5361,"poblacionTotal":12241},{"id":223,"nombre":"Ocaña","dep":"Norte de Santander","pobVenMun":10358,"porcentRegularMun":78.34398999999999,"porcentAfiliadDep":35,"valorRank":774,"valorIndice":53.67002,"encuestado":true,"latitud":8.23773,"longitud":-73.35604,"poblacionTotal":111643},{"id":224,"nombre":"Briceño","dep":"Boyacá","pobVenMun":31,"porcentRegularMun":94.75679,"porcentAfiliadDep":51,"valorRank":773,"valorIndice":53.69297,"encuestado":false,"latitud":5.68728,"longitud":-73.93284,"poblacionTotal":2054},{"id":225,"nombre":"Durania","dep":"Norte de Santander","pobVenMun":332,"porcentRegularMun":78.34398999999999,"porcentAfiliadDep":35,"valorRank":772,"valorIndice":53.73791,"encuestado":false,"latitud":7.71915,"longitud":-72.70029,"poblacionTotal":4390},{"id":226,"nombre":"Mosquera","dep":"Cundinamarca","pobVenMun":9252,"porcentRegularMun":91.81374,"porcentAfiliadDep":49,"valorRank":771,"valorIndice":53.76427,"encuestado":false,"latitud":4.68935,"longitud":-74.23599,"poblacionTotal":128893},{"id":227,"nombre":"Hatonuevo","dep":"La Guajira","pobVenMun":2488,"porcentRegularMun":86.88991,"porcentAfiliadDep":53,"valorRank":770,"valorIndice":53.77658,"encuestado":false,"latitud":11.0694,"longitud":-72.7669,"poblacionTotal":17672},{"id":228,"nombre":"Molagavita","dep":"Santander","pobVenMun":17,"porcentRegularMun":93.16243,"porcentAfiliadDep":54,"valorRank":769,"valorIndice":53.84959,"encuestado":false,"latitud":6.62625,"longitud":-72.85226,"poblacionTotal":3915},{"id":229,"nombre":"San Cayetano","dep":"Norte de Santander","pobVenMun":708,"porcentRegularMun":78.34398999999999,"porcentAfiliadDep":35,"valorRank":768,"valorIndice":53.85247,"encuestado":false,"latitud":7.82888,"longitud":-72.63787,"poblacionTotal":6677},{"id":230,"nombre":"Barranca de Upía","dep":"Meta","pobVenMun":410,"porcentRegularMun":95.81054,"porcentAfiliadDep":55,"valorRank":767,"valorIndice":53.94569,"encuestado":false,"latitud":4.47448,"longitud":-72.99367,"poblacionTotal":5946},{"id":231,"nombre":"Bolívar","dep":"Cauca","pobVenMun":227,"porcentRegularMun":98.07932000000001,"porcentAfiliadDep":59,"valorRank":766,"valorIndice":53.97907,"encuestado":false,"latitud":1.8467,"longitud":-76.98292,"poblacionTotal":35837},{"id":232,"nombre":"Subachoque","dep":"Cundinamarca","pobVenMun":545,"porcentRegularMun":91.81374,"porcentAfiliadDep":49,"valorRank":765,"valorIndice":54.03856,"encuestado":false,"latitud":5,"longitud":-74.16667,"poblacionTotal":14874},{"id":233,"nombre":"Tunja","dep":"Boyacá","pobVenMun":10047,"porcentRegularMun":94.75679,"porcentAfiliadDep":51,"valorRank":764,"valorIndice":54.25481,"encuestado":false,"latitud":5.53528,"longitud":-73.36778,"poblacionTotal":167991},{"id":234,"nombre":"San Francisco","dep":"Cundinamarca","pobVenMun":618,"porcentRegularMun":91.81374,"porcentAfiliadDep":49,"valorRank":763,"valorIndice":54.30778,"encuestado":false,"latitud":5,"longitud":-74.28333,"poblacionTotal":9644},{"id":235,"nombre":"Puerto Concordia","dep":"Meta","pobVenMun":144,"porcentRegularMun":95.81054,"porcentAfiliadDep":55,"valorRank":762,"valorIndice":54.36523,"encuestado":false,"latitud":2.62257,"longitud":-72.76108,"poblacionTotal":8086},{"id":236,"nombre":"Guaitarilla","dep":"Nariño","pobVenMun":36,"porcentRegularMun":44.23733,"porcentAfiliadDep":37,"valorRank":761,"valorIndice":54.3664,"encuestado":false,"latitud":1.17931,"longitud":-77.55838,"poblacionTotal":10774},{"id":237,"nombre":"Nueva Granada","dep":"Magdalena","pobVenMun":283,"porcentRegularMun":91.36410000000001,"porcentAfiliadDep":51,"valorRank":760,"valorIndice":54.45989,"encuestado":false,"latitud":9.73588,"longitud":-74.32892,"poblacionTotal":17470},{"id":238,"nombre":"Gama","dep":"Cundinamarca","pobVenMun":5,"porcentRegularMun":91.81374,"porcentAfiliadDep":49,"valorRank":759,"valorIndice":54.47849,"encuestado":false,"latitud":4.7620329,"longitud":-73.6200629,"poblacionTotal":3055},{"id":239,"nombre":"San Cayetano","dep":"Cundinamarca","pobVenMun":25,"porcentRegularMun":91.81374,"porcentAfiliadDep":49,"valorRank":759,"valorIndice":54.47849,"encuestado":false,"latitud":5.3012225,"longitud":-74.0722775,"poblacionTotal":4043},{"id":240,"nombre":"Distracción","dep":"La Guajira","pobVenMun":951,"porcentRegularMun":86.88991,"porcentAfiliadDep":53,"valorRank":758,"valorIndice":54.58147,"encuestado":false,"latitud":10.9,"longitud":-72.88333,"poblacionTotal":11934},{"id":241,"nombre":"Altos del Rosario","dep":"Bolívar","pobVenMun":197,"porcentRegularMun":89.36557,"porcentAfiliadDep":67,"valorRank":757,"valorIndice":54.58236,"encuestado":false,"latitud":8.73888,"longitud":-74.23005,"poblacionTotal":9009},{"id":242,"nombre":"Alejandría","dep":"Antioquia","pobVenMun":63,"porcentRegularMun":83.41248999999999,"porcentAfiliadDep":56,"valorRank":756,"valorIndice":54.59463,"encuestado":false,"latitud":6.373671,"longitud":-75.137432,"poblacionTotal":3839},{"id":243,"nombre":"Florián","dep":"Santander","pobVenMun":19,"porcentRegularMun":93.16243,"porcentAfiliadDep":54,"valorRank":755,"valorIndice":54.59712,"encuestado":false,"latitud":5.80384,"longitud":-74.01578,"poblacionTotal":4603},{"id":244,"nombre":"Florencia","dep":"Cauca","pobVenMun":51,"porcentRegularMun":98.07932000000001,"porcentAfiliadDep":59,"valorRank":754,"valorIndice":54.68057,"encuestado":false,"latitud":1.7125,"longitud":-77.09126,"poblacionTotal":5089},{"id":245,"nombre":"San Andrés de Tumaco","dep":"Nariño","pobVenMun":1898,"porcentRegularMun":44.23733,"porcentAfiliadDep":37,"valorRank":753,"valorIndice":54.75481,"encuestado":false,"latitud":1.79112,"longitud":-78.79275,"poblacionTotal":138091},{"id":246,"nombre":"La Vega","dep":"Cauca","pobVenMun":19,"porcentRegularMun":98.07932000000001,"porcentAfiliadDep":59,"valorRank":752,"valorIndice":54.78278,"encuestado":false,"latitud":2.08333,"longitud":-76.83333,"poblacionTotal":19777},{"id":247,"nombre":"San Zenón","dep":"Magdalena","pobVenMun":244,"porcentRegularMun":91.36410000000001,"porcentAfiliadDep":51,"valorRank":751,"valorIndice":54.91023,"encuestado":false,"latitud":9.33333,"longitud":-74.3,"poblacionTotal":11279},{"id":248,"nombre":"Soacha","dep":"Cundinamarca","pobVenMun":48303,"porcentRegularMun":91.81374,"porcentAfiliadDep":49,"valorRank":750,"valorIndice":55.10373,"encuestado":true,"latitud":4.57937,"longitud":-74.21682,"poblacionTotal":645205},{"id":249,"nombre":"Soracá","dep":"Boyacá","pobVenMun":112,"porcentRegularMun":94.75679,"porcentAfiliadDep":51,"valorRank":749,"valorIndice":55.10933,"encuestado":false,"latitud":5.45765,"longitud":-73.34743,"poblacionTotal":5904},{"id":250,"nombre":"Córdoba","dep":"Nariño","pobVenMun":58,"porcentRegularMun":44.23733,"porcentAfiliadDep":37,"valorRank":748,"valorIndice":55.12627,"encuestado":false,"latitud":0.78333,"longitud":-77.33333,"poblacionTotal":14827},{"id":251,"nombre":"Plato","dep":"Magdalena","pobVenMun":844,"porcentRegularMun":91.36410000000001,"porcentAfiliadDep":51,"valorRank":747,"valorIndice":55.1379,"encuestado":false,"latitud":9.77267,"longitud":-74.74548,"poblacionTotal":56210},{"id":252,"nombre":"Córdoba","dep":"Bolívar","pobVenMun":117,"porcentRegularMun":89.36557,"porcentAfiliadDep":67,"valorRank":746,"valorIndice":55.38751,"encuestado":false,"latitud":9.5,"longitud":-74.91667,"poblacionTotal":15012},{"id":253,"nombre":"San Francisco","dep":"Putumayo","pobVenMun":32,"porcentRegularMun":100,"porcentAfiliadDep":60,"valorRank":745,"valorIndice":55.52066,"encuestado":false,"latitud":1.11155,"longitud":-76.83987,"poblacionTotal":5572},{"id":254,"nombre":"Barrancas","dep":"La Guajira","pobVenMun":3395,"porcentRegularMun":86.88991,"porcentAfiliadDep":53,"valorRank":744,"valorIndice":55.60812,"encuestado":true,"latitud":11,"longitud":-72.75,"poblacionTotal":28549},{"id":255,"nombre":"La Cruz","dep":"Nariño","pobVenMun":48,"porcentRegularMun":44.23733,"porcentAfiliadDep":37,"valorRank":743,"valorIndice":55.61846,"encuestado":false,"latitud":1.55,"longitud":-76.88333,"poblacionTotal":16674},{"id":256,"nombre":"Medio Baudó","dep":"Chocó","pobVenMun":22,"porcentRegularMun":100,"porcentAfiliadDep":32,"valorRank":742,"valorIndice":55.62528,"encuestado":false,"latitud":5.05,"longitud":-77.05,"poblacionTotal":13423},{"id":257,"nombre":"Paratebueno","dep":"Cundinamarca","pobVenMun":417,"porcentRegularMun":91.81374,"porcentAfiliadDep":49,"valorRank":741,"valorIndice":55.65145,"encuestado":false,"latitud":4.41691,"longitud":-73.18559,"poblacionTotal":8043},{"id":258,"nombre":"Guapotá","dep":"Santander","pobVenMun":23,"porcentRegularMun":93.16243,"porcentAfiliadDep":54,"valorRank":740,"valorIndice":55.70217,"encuestado":false,"latitud":6.30697,"longitud":-73.32848,"poblacionTotal":2052},{"id":259,"nombre":"Albania","dep":"La Guajira","pobVenMun":2646,"porcentRegularMun":86.88991,"porcentAfiliadDep":53,"valorRank":739,"valorIndice":55.7089,"encuestado":false,"latitud":11.1597,"longitud":-72.5856,"poblacionTotal":26940},{"id":260,"nombre":"Ayapel","dep":"Córdoba","pobVenMun":131,"porcentRegularMun":93.37863,"porcentAfiliadDep":56,"valorRank":738,"valorIndice":55.72927,"encuestado":false,"latitud":8.25,"longitud":-75.25,"poblacionTotal":38816},{"id":261,"nombre":"Buesaco","dep":"Nariño","pobVenMun":61,"porcentRegularMun":44.23733,"porcentAfiliadDep":37,"valorRank":737,"valorIndice":55.77856,"encuestado":false,"latitud":1.25,"longitud":-77.08333,"poblacionTotal":19951},{"id":262,"nombre":"Santa María","dep":"Boyacá","pobVenMun":60,"porcentRegularMun":94.75679,"porcentAfiliadDep":51,"valorRank":736,"valorIndice":55.89183,"encuestado":false,"latitud":4.82282,"longitud":-73.25373,"poblacionTotal":3109},{"id":263,"nombre":"Viotá","dep":"Cundinamarca","pobVenMun":235,"porcentRegularMun":91.81374,"porcentAfiliadDep":49,"valorRank":735,"valorIndice":55.90689,"encuestado":false,"latitud":4.42054,"longitud":-74.50811,"poblacionTotal":12589},{"id":264,"nombre":"Necoclí","dep":"Antioquia","pobVenMun":790,"porcentRegularMun":83.41248999999999,"porcentAfiliadDep":56,"valorRank":734,"valorIndice":56.18663,"encuestado":false,"latitud":8.42627,"longitud":-76.78926,"poblacionTotal":38420},{"id":265,"nombre":"Tocaima","dep":"Cundinamarca","pobVenMun":296,"porcentRegularMun":91.81374,"porcentAfiliadDep":49,"valorRank":733,"valorIndice":56.19574,"encuestado":false,"latitud":4.5,"longitud":-74.6667,"poblacionTotal":13649},{"id":266,"nombre":"Monguí","dep":"Boyacá","pobVenMun":54,"porcentRegularMun":94.75679,"porcentAfiliadDep":51,"valorRank":732,"valorIndice":56.2525,"encuestado":false,"latitud":5.7232059,"longitud":-72.8542388,"poblacionTotal":3895},{"id":267,"nombre":"Medellín","dep":"Antioquia","pobVenMun":241166,"porcentRegularMun":83.41248999999999,"porcentAfiliadDep":56,"valorRank":731,"valorIndice":56.33664,"encuestado":false,"latitud":6.206993,"longitud":-75.571591,"poblacionTotal":2372330},{"id":268,"nombre":"Nariño","dep":"Antioquia","pobVenMun":30,"porcentRegularMun":83.41248999999999,"porcentAfiliadDep":56,"valorRank":730,"valorIndice":56.34142,"encuestado":false,"latitud":5.6,"longitud":-75.16667,"poblacionTotal":8603},{"id":269,"nombre":"Roberto Payán","dep":"Nariño","pobVenMun":5,"porcentRegularMun":44.23733,"porcentAfiliadDep":37,"valorRank":729,"valorIndice":56.36969,"encuestado":false,"latitud":1.91667,"longitud":-78.33333,"poblacionTotal":10473},{"id":270,"nombre":"El Tablón de Gómez","dep":"Nariño","pobVenMun":9,"porcentRegularMun":44.23733,"porcentAfiliadDep":37,"valorRank":729,"valorIndice":56.36969,"encuestado":false,"latitud":1.38333,"longitud":-76.91667,"poblacionTotal":13255},{"id":271,"nombre":"Barbacoas","dep":"Nariño","pobVenMun":111,"porcentRegularMun":44.23733,"porcentAfiliadDep":37,"valorRank":729,"valorIndice":56.36969,"encuestado":false,"latitud":1.58333,"longitud":-78,"poblacionTotal":34248},{"id":272,"nombre":"Magüí Payán","dep":"Nariño","pobVenMun":43,"porcentRegularMun":44.23733,"porcentAfiliadDep":37,"valorRank":729,"valorIndice":56.36969,"encuestado":false,"latitud":1.7655101,"longitud":-78.1860659,"poblacionTotal":18262},{"id":273,"nombre":"Los Andes","dep":"Nariño","pobVenMun":48,"porcentRegularMun":44.23733,"porcentAfiliadDep":37,"valorRank":729,"valorIndice":56.36969,"encuestado":false,"latitud":1.58333,"longitud":-77.58333,"poblacionTotal":8703},{"id":274,"nombre":"San Pablo","dep":"Nariño","pobVenMun":14,"porcentRegularMun":44.23733,"porcentAfiliadDep":37,"valorRank":729,"valorIndice":56.36969,"encuestado":false,"latitud":1.6702,"longitud":-77.02373,"poblacionTotal":12929},{"id":275,"nombre":"Leiva","dep":"Nariño","pobVenMun":75,"porcentRegularMun":44.23733,"porcentAfiliadDep":37,"valorRank":729,"valorIndice":56.36969,"encuestado":false,"latitud":1.96147,"longitud":-77.37561,"poblacionTotal":8201},{"id":276,"nombre":"El Peñol","dep":"Nariño","pobVenMun":7,"porcentRegularMun":44.23733,"porcentAfiliadDep":37,"valorRank":729,"valorIndice":56.36969,"encuestado":false,"latitud":1.51285,"longitud":-77.43077,"poblacionTotal":6223},{"id":277,"nombre":"Santa Bárbara","dep":"Nariño","pobVenMun":9,"porcentRegularMun":44.23733,"porcentAfiliadDep":37,"valorRank":729,"valorIndice":56.36969,"encuestado":false,"latitud":2.33333,"longitud":-77.91667,"poblacionTotal":8989},{"id":278,"nombre":"Funes","dep":"Nariño","pobVenMun":34,"porcentRegularMun":44.23733,"porcentAfiliadDep":37,"valorRank":729,"valorIndice":56.36969,"encuestado":false,"latitud":1.0011675,"longitud":-77.4592258,"poblacionTotal":6211},{"id":279,"nombre":"Pupiales","dep":"Nariño","pobVenMun":10,"porcentRegularMun":44.23733,"porcentAfiliadDep":37,"valorRank":729,"valorIndice":56.36969,"encuestado":false,"latitud":0.91667,"longitud":-77.66667,"poblacionTotal":16431},{"id":280,"nombre":"Consacá","dep":"Nariño","pobVenMun":18,"porcentRegularMun":44.23733,"porcentAfiliadDep":37,"valorRank":729,"valorIndice":56.36969,"encuestado":false,"latitud":1.20841,"longitud":-77.46323,"poblacionTotal":10117},{"id":281,"nombre":"San Bernardo","dep":"Nariño","pobVenMun":9,"porcentRegularMun":44.23733,"porcentAfiliadDep":37,"valorRank":729,"valorIndice":56.36969,"encuestado":false,"latitud":1.53859,"longitud":-77.03795,"poblacionTotal":8874},{"id":282,"nombre":"Puerres","dep":"Nariño","pobVenMun":33,"porcentRegularMun":44.23733,"porcentAfiliadDep":37,"valorRank":729,"valorIndice":56.36969,"encuestado":false,"latitud":0.82122,"longitud":-77.31978,"poblacionTotal":8446},{"id":283,"nombre":"Francisco Pizarro","dep":"Nariño","pobVenMun":2,"porcentRegularMun":44.23733,"porcentAfiliadDep":37,"valorRank":729,"valorIndice":56.36969,"encuestado":false,"latitud":2.14713,"longitud":-78.58883,"poblacionTotal":7430},{"id":284,"nombre":"Yacuanquer","dep":"Nariño","pobVenMun":15,"porcentRegularMun":44.23733,"porcentAfiliadDep":37,"valorRank":729,"valorIndice":56.36969,"encuestado":false,"latitud":1.16113,"longitud":-77.44199,"poblacionTotal":10579},{"id":285,"nombre":"Linares","dep":"Nariño","pobVenMun":52,"porcentRegularMun":44.23733,"porcentAfiliadDep":37,"valorRank":729,"valorIndice":56.36969,"encuestado":false,"latitud":1.40053,"longitud":-77.54422,"poblacionTotal":8974},{"id":286,"nombre":"Sandoná","dep":"Nariño","pobVenMun":134,"porcentRegularMun":44.23733,"porcentAfiliadDep":37,"valorRank":729,"valorIndice":56.36969,"encuestado":false,"latitud":1.28626,"longitud":-77.46921,"poblacionTotal":18859},{"id":287,"nombre":"Colón","dep":"Nariño","pobVenMun":11,"porcentRegularMun":44.23733,"porcentAfiliadDep":37,"valorRank":729,"valorIndice":56.36969,"encuestado":false,"latitud":1.64233,"longitud":-77.0293497,"poblacionTotal":7764},{"id":288,"nombre":"Contadero","dep":"Nariño","pobVenMun":18,"porcentRegularMun":44.23733,"porcentAfiliadDep":37,"valorRank":729,"valorIndice":56.36969,"encuestado":false,"latitud":0.91667,"longitud":-77.53333,"poblacionTotal":6421},{"id":289,"nombre":"Providencia","dep":"Nariño","pobVenMun":8,"porcentRegularMun":44.23733,"porcentAfiliadDep":37,"valorRank":729,"valorIndice":56.36969,"encuestado":false,"latitud":1.24204,"longitud":-77.60468,"poblacionTotal":4619},{"id":290,"nombre":"San Pedro de Cartago","dep":"Nariño","pobVenMun":4,"porcentRegularMun":44.23733,"porcentAfiliadDep":37,"valorRank":729,"valorIndice":56.36969,"encuestado":false,"latitud":1.5526589,"longitud":-77.1228154,"poblacionTotal":6572},{"id":291,"nombre":"Taminango","dep":"Nariño","pobVenMun":414,"porcentRegularMun":44.23733,"porcentAfiliadDep":37,"valorRank":729,"valorIndice":56.36969,"encuestado":false,"latitud":1.59388,"longitud":-77.35522,"poblacionTotal":15412},{"id":292,"nombre":"Mallama","dep":"Nariño","pobVenMun":47,"porcentRegularMun":44.23733,"porcentAfiliadDep":37,"valorRank":729,"valorIndice":56.36969,"encuestado":false,"latitud":1.08333,"longitud":-77.81667,"poblacionTotal":8013},{"id":293,"nombre":"San Lorenzo","dep":"Nariño","pobVenMun":15,"porcentRegularMun":44.23733,"porcentAfiliadDep":37,"valorRank":729,"valorIndice":56.36969,"encuestado":false,"latitud":1.55731,"longitud":-77.24599,"poblacionTotal":16653},{"id":294,"nombre":"Túquerres","dep":"Nariño","pobVenMun":275,"porcentRegularMun":44.23733,"porcentAfiliadDep":37,"valorRank":729,"valorIndice":56.36969,"encuestado":false,"latitud":1.16002,"longitud":-77.67035,"poblacionTotal":42413},{"id":295,"nombre":"Potosí","dep":"Nariño","pobVenMun":15,"porcentRegularMun":44.23733,"porcentAfiliadDep":37,"valorRank":729,"valorIndice":56.36969,"encuestado":false,"latitud":0.75,"longitud":-77.41667,"poblacionTotal":10186},{"id":296,"nombre":"Nemocón","dep":"Cundinamarca","pobVenMun":746,"porcentRegularMun":91.81374,"porcentAfiliadDep":49,"valorRank":728,"valorIndice":56.3812,"encuestado":false,"latitud":5.05,"longitud":-73.8833,"poblacionTotal":12198},{"id":297,"nombre":"San Juan del Cesar","dep":"La Guajira","pobVenMun":4793,"porcentRegularMun":86.88991,"porcentAfiliadDep":53,"valorRank":727,"valorIndice":56.38542,"encuestado":false,"latitud":10.77107,"longitud":-73.00314,"poblacionTotal":46077},{"id":298,"nombre":"Caldono","dep":"Cauca","pobVenMun":88,"porcentRegularMun":98.07932000000001,"porcentAfiliadDep":59,"valorRank":726,"valorIndice":56.58942,"encuestado":false,"latitud":2.83333,"longitud":-76.41667,"poblacionTotal":36139},{"id":299,"nombre":"Tutazá","dep":"Boyacá","pobVenMun":41,"porcentRegularMun":94.75679,"porcentAfiliadDep":51,"valorRank":725,"valorIndice":56.60436,"encuestado":false,"latitud":6.0328591,"longitud":-72.857679,"poblacionTotal":1794},{"id":300,"nombre":"Labranzagrande","dep":"Boyacá","pobVenMun":12,"porcentRegularMun":94.75679,"porcentAfiliadDep":51,"valorRank":724,"valorIndice":56.70332,"encuestado":false,"latitud":5.58333,"longitud":-72.58333,"poblacionTotal":3075},{"id":301,"nombre":"Saravena","dep":"Arauca","pobVenMun":9064,"porcentRegularMun":90.84863,"porcentAfiliadDep":41,"valorRank":723,"valorIndice":56.78909,"encuestado":false,"latitud":6.92056,"longitud":-71.85333,"poblacionTotal":52884},{"id":302,"nombre":"San Bernardo","dep":"Cundinamarca","pobVenMun":211,"porcentRegularMun":91.81374,"porcentAfiliadDep":49,"valorRank":722,"valorIndice":56.88752,"encuestado":false,"latitud":4.12956,"longitud":-74.35903,"poblacionTotal":7417},{"id":303,"nombre":"Argelia","dep":"Cauca","pobVenMun":775,"porcentRegularMun":98.07932000000001,"porcentAfiliadDep":59,"valorRank":721,"valorIndice":56.90818,"encuestado":false,"latitud":2.26667,"longitud":-77.25,"poblacionTotal":20136},{"id":304,"nombre":"Tenerife","dep":"Magdalena","pobVenMun":83,"porcentRegularMun":91.36410000000001,"porcentAfiliadDep":51,"valorRank":720,"valorIndice":57.02211,"encuestado":false,"latitud":10,"longitud":-74.66667,"poblacionTotal":12364},{"id":305,"nombre":"Betulia","dep":"Santander","pobVenMun":160,"porcentRegularMun":93.16243,"porcentAfiliadDep":54,"valorRank":719,"valorIndice":57.02754,"encuestado":false,"latitud":6.99622,"longitud":-73.39155,"poblacionTotal":5230},{"id":306,"nombre":"La Montañita","dep":"Caquetá","pobVenMun":5,"porcentRegularMun":100,"porcentAfiliadDep":48,"valorRank":718,"valorIndice":57.10508,"encuestado":false,"latitud":1.34607,"longitud":-75.42862,"poblacionTotal":12128},{"id":307,"nombre":"Rionegro","dep":"Santander","pobVenMun":880,"porcentRegularMun":93.16243,"porcentAfiliadDep":54,"valorRank":717,"valorIndice":57.10985,"encuestado":false,"latitud":7.5,"longitud":-73.33333,"poblacionTotal":25266},{"id":308,"nombre":"Urumita","dep":"La Guajira","pobVenMun":462,"porcentRegularMun":86.88991,"porcentAfiliadDep":53,"valorRank":716,"valorIndice":57.12634,"encuestado":false,"latitud":10.46652,"longitud":-73.02971,"poblacionTotal":10198},{"id":309,"nombre":"Caparrapí","dep":"Cundinamarca","pobVenMun":59,"porcentRegularMun":91.81374,"porcentAfiliadDep":49,"valorRank":715,"valorIndice":57.24191,"encuestado":false,"latitud":5.41667,"longitud":-74.58333,"poblacionTotal":10301},{"id":310,"nombre":"Uribia","dep":"La Guajira","pobVenMun":13550,"porcentRegularMun":86.88991,"porcentAfiliadDep":53,"valorRank":714,"valorIndice":57.3227,"encuestado":true,"latitud":11.91667,"longitud":-72,"poblacionTotal":160711},{"id":311,"nombre":"El Doncello","dep":"Caquetá","pobVenMun":37,"porcentRegularMun":100,"porcentAfiliadDep":48,"valorRank":713,"valorIndice":57.37535,"encuestado":false,"latitud":1.7086,"longitud":-75.28588,"poblacionTotal":17775},{"id":312,"nombre":"Chiriguaná","dep":"Cesar","pobVenMun":1627,"porcentRegularMun":91.28079,"porcentAfiliadDep":55,"valorRank":712,"valorIndice":57.58106,"encuestado":false,"latitud":9.36238,"longitud":-73.60313,"poblacionTotal":27006},{"id":313,"nombre":"Margarita","dep":"Bolívar","pobVenMun":203,"porcentRegularMun":89.36557,"porcentAfiliadDep":67,"valorRank":711,"valorIndice":57.62592,"encuestado":false,"latitud":9.06325,"longitud":-74.28134,"poblacionTotal":9720},{"id":314,"nombre":"Cerrito","dep":"Santander","pobVenMun":445,"porcentRegularMun":93.16243,"porcentAfiliadDep":54,"valorRank":710,"valorIndice":57.64135,"encuestado":false,"latitud":6.8907,"longitud":-72.67103,"poblacionTotal":6460},{"id":315,"nombre":"La Guadalupe","dep":"Guainía","pobVenMun":0,"porcentRegularMun":91.91564,"porcentAfiliadDep":23,"valorRank":709,"valorIndice":57.68161,"encuestado":false,"latitud":1.4187514,"longitud":-67.1669193,"poblacionTotal":222},{"id":316,"nombre":"Morichal","dep":"Guainía","pobVenMun":0,"porcentRegularMun":91.91564,"porcentAfiliadDep":23,"valorRank":709,"valorIndice":57.68161,"encuestado":false,"latitud":2.2642004,"longitud":-69.9150802,"poblacionTotal":812},{"id":317,"nombre":"Pana Pana","dep":"Guainía","pobVenMun":0,"porcentRegularMun":91.91564,"porcentAfiliadDep":23,"valorRank":709,"valorIndice":57.68161,"encuestado":false,"latitud":1.8421041,"longitud":-69.013755,"poblacionTotal":1182},{"id":319,"nombre":"Dibulla","dep":"La Guajira","pobVenMun":3612,"porcentRegularMun":86.88991,"porcentAfiliadDep":53,"valorRank":708,"valorIndice":57.73195,"encuestado":false,"latitud":11.26667,"longitud":-73.3,"poblacionTotal":36196},{"id":320,"nombre":"El Tambo","dep":"Cauca","pobVenMun":199,"porcentRegularMun":98.07932000000001,"porcentAfiliadDep":59,"valorRank":707,"valorIndice":57.80819,"encuestado":false,"latitud":2.5,"longitud":-77,"poblacionTotal":38688},{"id":321,"nombre":"Caracolí","dep":"Antioquia","pobVenMun":36,"porcentRegularMun":83.41248999999999,"porcentAfiliadDep":56,"valorRank":706,"valorIndice":57.86985,"encuestado":false,"latitud":6.32649,"longitud":-74.74194,"poblacionTotal":3967},{"id":322,"nombre":"Palmas del Socorro","dep":"Santander","pobVenMun":71,"porcentRegularMun":93.16243,"porcentAfiliadDep":54,"valorRank":705,"valorIndice":57.89048,"encuestado":false,"latitud":6.406334,"longitud":-73.288111,"poblacionTotal":2467},{"id":323,"nombre":"Atrato","dep":"Chocó","pobVenMun":18,"porcentRegularMun":100,"porcentAfiliadDep":32,"valorRank":704,"valorIndice":57.89801,"encuestado":false,"latitud":5.533183,"longitud":-76.632576,"poblacionTotal":5519},{"id":324,"nombre":"Choachí","dep":"Cundinamarca","pobVenMun":265,"porcentRegularMun":91.81374,"porcentAfiliadDep":49,"valorRank":703,"valorIndice":57.91666,"encuestado":false,"latitud":4.58333,"longitud":-73.91667,"poblacionTotal":10397},{"id":325,"nombre":"Ciénaga","dep":"Magdalena","pobVenMun":7482,"porcentRegularMun":91.36410000000001,"porcentAfiliadDep":51,"valorRank":702,"valorIndice":57.92146,"encuestado":false,"latitud":11.00703,"longitud":-74.24765,"poblacionTotal":118435},{"id":326,"nombre":"Gachancipá","dep":"Cundinamarca","pobVenMun":1208,"porcentRegularMun":91.81374,"porcentAfiliadDep":49,"valorRank":701,"valorIndice":57.92415,"encuestado":false,"latitud":4.98648,"longitud":-73.89989,"poblacionTotal":16633},{"id":327,"nombre":"Galán","dep":"Santander","pobVenMun":64,"porcentRegularMun":93.16243,"porcentAfiliadDep":54,"valorRank":700,"valorIndice":57.93298,"encuestado":false,"latitud":6.66271,"longitud":-73.34233,"poblacionTotal":2682},{"id":328,"nombre":"Bucaramanga","dep":"Santander","pobVenMun":60563,"porcentRegularMun":93.16243,"porcentAfiliadDep":54,"valorRank":699,"valorIndice":58.04277,"encuestado":false,"latitud":7.12539,"longitud":-73.1198,"poblacionTotal":528855},{"id":329,"nombre":"Caldas","dep":"Boyacá","pobVenMun":9,"porcentRegularMun":94.75679,"porcentAfiliadDep":51,"valorRank":698,"valorIndice":58.0558,"encuestado":false,"latitud":5.55,"longitud":-73.88333,"poblacionTotal":3086},{"id":330,"nombre":"El Espino","dep":"Boyacá","pobVenMun":36,"porcentRegularMun":94.75679,"porcentAfiliadDep":51,"valorRank":698,"valorIndice":58.0558,"encuestado":false,"latitud":6.482813,"longitud":-72.496727,"poblacionTotal":2715},{"id":331,"nombre":"Muzo","dep":"Boyacá","pobVenMun":105,"porcentRegularMun":94.75679,"porcentAfiliadDep":51,"valorRank":697,"valorIndice":58.21037,"encuestado":false,"latitud":5.51667,"longitud":-74.11667,"poblacionTotal":8323},{"id":332,"nombre":"Puerto Berrío","dep":"Antioquia","pobVenMun":1544,"porcentRegularMun":83.41248999999999,"porcentAfiliadDep":56,"valorRank":696,"valorIndice":58.31531,"encuestado":false,"latitud":6.41667,"longitud":-74.5,"poblacionTotal":36801},{"id":333,"nombre":"Vijes","dep":"Valle del Cauca","pobVenMun":648,"porcentRegularMun":95.45337,"porcentAfiliadDep":62,"valorRank":695,"valorIndice":58.48658,"encuestado":false,"latitud":3.73283,"longitud":-76.49363,"poblacionTotal":10766},{"id":334,"nombre":"Tadó","dep":"Chocó","pobVenMun":41,"porcentRegularMun":100,"porcentAfiliadDep":32,"valorRank":694,"valorIndice":58.50776,"encuestado":false,"latitud":5.26598,"longitud":-76.56487,"poblacionTotal":17000},{"id":335,"nombre":"Piamonte","dep":"Cauca","pobVenMun":23,"porcentRegularMun":98.07932000000001,"porcentAfiliadDep":59,"valorRank":693,"valorIndice":58.52226,"encuestado":false,"latitud":1.19279,"longitud":-76.33453,"poblacionTotal":7125},{"id":336,"nombre":"El Carmen","dep":"Norte de Santander","pobVenMun":188,"porcentRegularMun":78.34398999999999,"porcentAfiliadDep":35,"valorRank":692,"valorIndice":58.57825,"encuestado":false,"latitud":8.75,"longitud":-73.33333,"poblacionTotal":12001},{"id":337,"nombre":"Capitanejo","dep":"Santander","pobVenMun":204,"porcentRegularMun":93.16243,"porcentAfiliadDep":54,"valorRank":691,"valorIndice":58.58396,"encuestado":false,"latitud":6.5003,"longitud":-72.7035,"poblacionTotal":5328},{"id":338,"nombre":"La Mesa","dep":"Cundinamarca","pobVenMun":1643,"porcentRegularMun":91.81374,"porcentAfiliadDep":49,"valorRank":690,"valorIndice":58.58795,"encuestado":false,"latitud":4.66667,"longitud":-74.5,"poblacionTotal":29452},{"id":339,"nombre":"Sahagún","dep":"Córdoba","pobVenMun":1422,"porcentRegularMun":93.37863,"porcentAfiliadDep":56,"valorRank":689,"valorIndice":58.62764,"encuestado":false,"latitud":8.94617,"longitud":-75.44275,"poblacionTotal":94020},{"id":340,"nombre":"Granada","dep":"Cundinamarca","pobVenMun":317,"porcentRegularMun":91.81374,"porcentAfiliadDep":49,"valorRank":688,"valorIndice":58.74438,"encuestado":false,"latitud":4.51861,"longitud":-74.35139,"poblacionTotal":6922},{"id":341,"nombre":"Simijaca","dep":"Cundinamarca","pobVenMun":151,"porcentRegularMun":91.81374,"porcentAfiliadDep":49,"valorRank":687,"valorIndice":58.79748,"encuestado":false,"latitud":5.50415,"longitud":-73.86944,"poblacionTotal":11526},{"id":342,"nombre":"Villapinzón","dep":"Cundinamarca","pobVenMun":222,"porcentRegularMun":91.81374,"porcentAfiliadDep":49,"valorRank":686,"valorIndice":58.84182,"encuestado":false,"latitud":5.20883,"longitud":-73.60536,"poblacionTotal":15834},{"id":343,"nombre":"Socorro","dep":"Santander","pobVenMun":2134,"porcentRegularMun":93.16243,"porcentAfiliadDep":54,"valorRank":685,"valorIndice":58.84664,"encuestado":false,"latitud":6.45647,"longitud":-73.25502,"poblacionTotal":29997},{"id":344,"nombre":"Saboyá","dep":"Boyacá","pobVenMun":26,"porcentRegularMun":94.75679,"porcentAfiliadDep":51,"valorRank":684,"valorIndice":58.88809,"encuestado":false,"latitud":5.68787,"longitud":-73.78139,"poblacionTotal":11161},{"id":345,"nombre":"Concepción","dep":"Santander","pobVenMun":203,"porcentRegularMun":93.16243,"porcentAfiliadDep":54,"valorRank":683,"valorIndice":58.92913,"encuestado":false,"latitud":6.7702,"longitud":-72.63437,"poblacionTotal":5300},{"id":346,"nombre":"San José de Pare","dep":"Boyacá","pobVenMun":335,"porcentRegularMun":94.75679,"porcentAfiliadDep":51,"valorRank":682,"valorIndice":58.94399,"encuestado":false,"latitud":5.97681,"longitud":-73.55959,"poblacionTotal":4658},{"id":347,"nombre":"La Jagua de Ibirico","dep":"Cesar","pobVenMun":3819,"porcentRegularMun":91.28079,"porcentAfiliadDep":55,"valorRank":681,"valorIndice":58.95911,"encuestado":false,"latitud":9.56667,"longitud":-73.33333,"poblacionTotal":37356},{"id":348,"nombre":"Boavita","dep":"Boyacá","pobVenMun":153,"porcentRegularMun":94.75679,"porcentAfiliadDep":51,"valorRank":680,"valorIndice":59.01049,"encuestado":false,"latitud":6.331521,"longitud":-72.5885679,"poblacionTotal":5024},{"id":349,"nombre":"Útica","dep":"Cundinamarca","pobVenMun":105,"porcentRegularMun":91.81374,"porcentAfiliadDep":49,"valorRank":679,"valorIndice":59.04549,"encuestado":false,"latitud":5.16977,"longitud":-74.50134,"poblacionTotal":4032},{"id":350,"nombre":"Achí","dep":"Bolívar","pobVenMun":221,"porcentRegularMun":89.36557,"porcentAfiliadDep":67,"valorRank":678,"valorIndice":59.12436,"encuestado":false,"latitud":8.41268,"longitud":-74.529,"poblacionTotal":18879},{"id":351,"nombre":"Calamar","dep":"Guaviare","pobVenMun":498,"porcentRegularMun":99.26393,"porcentAfiliadDep":47,"valorRank":677,"valorIndice":59.19229,"encuestado":false,"latitud":1.60178,"longitud":-72.98243,"poblacionTotal":8648},{"id":352,"nombre":"Arauquita","dep":"Arauca","pobVenMun":8433,"porcentRegularMun":90.84863,"porcentAfiliadDep":41,"valorRank":676,"valorIndice":59.22885,"encuestado":true,"latitud":6.94583,"longitud":-71.4697,"poblacionTotal":45268},{"id":353,"nombre":"Pandi","dep":"Cundinamarca","pobVenMun":72,"porcentRegularMun":91.81374,"porcentAfiliadDep":49,"valorRank":675,"valorIndice":59.27383,"encuestado":false,"latitud":4.15422,"longitud":-74.48953,"poblacionTotal":4735},{"id":354,"nombre":"Chipaque","dep":"Cundinamarca","pobVenMun":136,"porcentRegularMun":91.81374,"porcentAfiliadDep":49,"valorRank":675,"valorIndice":59.27383,"encuestado":false,"latitud":4.41481,"longitud":-74.07541,"poblacionTotal":8633},{"id":355,"nombre":"Junín","dep":"Cundinamarca","pobVenMun":10,"porcentRegularMun":91.81374,"porcentAfiliadDep":49,"valorRank":675,"valorIndice":59.27383,"encuestado":false,"latitud":4.75,"longitud":-73.66667,"poblacionTotal":5234},{"id":356,"nombre":"Tarso","dep":"Antioquia","pobVenMun":64,"porcentRegularMun":83.41248999999999,"porcentAfiliadDep":56,"valorRank":674,"valorIndice":59.30276,"encuestado":false,"latitud":5.83333,"longitud":-75.83333,"poblacionTotal":5663},{"id":357,"nombre":"Calamar","dep":"Bolívar","pobVenMun":687,"porcentRegularMun":89.36557,"porcentAfiliadDep":67,"valorRank":673,"valorIndice":59.32423,"encuestado":false,"latitud":10.250067,"longitud":-74.914534,"poblacionTotal":22202},{"id":358,"nombre":"Albania","dep":"Caquetá","pobVenMun":18,"porcentRegularMun":100,"porcentAfiliadDep":48,"valorRank":672,"valorIndice":59.3273,"encuestado":false,"latitud":1.26325,"longitud":-75.95366,"poblacionTotal":4514},{"id":359,"nombre":"Barranco de Loba","dep":"Bolívar","pobVenMun":167,"porcentRegularMun":89.36557,"porcentAfiliadDep":67,"valorRank":671,"valorIndice":59.3296,"encuestado":false,"latitud":8.83333,"longitud":-74.16667,"poblacionTotal":14435},{"id":360,"nombre":"Floresta","dep":"Boyacá","pobVenMun":72,"porcentRegularMun":94.75679,"porcentAfiliadDep":51,"valorRank":670,"valorIndice":59.40828,"encuestado":false,"latitud":5.8593474,"longitud":-72.9216314,"poblacionTotal":3186},{"id":361,"nombre":"Villeta","dep":"Cundinamarca","pobVenMun":1595,"porcentRegularMun":91.81374,"porcentAfiliadDep":49,"valorRank":669,"valorIndice":59.40913,"encuestado":false,"latitud":5.00008,"longitud":-74.50498,"poblacionTotal":25957},{"id":362,"nombre":"Cogua","dep":"Cundinamarca","pobVenMun":485,"porcentRegularMun":91.81374,"porcentAfiliadDep":49,"valorRank":668,"valorIndice":59.42215,"encuestado":false,"latitud":5.0667,"longitud":-73.9833,"poblacionTotal":21102},{"id":363,"nombre":"Cáceres","dep":"Antioquia","pobVenMun":80,"porcentRegularMun":83.41248999999999,"porcentAfiliadDep":56,"valorRank":667,"valorIndice":59.58934,"encuestado":false,"latitud":7.66667,"longitud":-75.33333,"poblacionTotal":26460},{"id":364,"nombre":"Chigorodó","dep":"Antioquia","pobVenMun":1506,"porcentRegularMun":83.41248999999999,"porcentAfiliadDep":56,"valorRank":666,"valorIndice":59.60533,"encuestado":false,"latitud":7.668192,"longitud":-76.673002,"poblacionTotal":55564},{"id":365,"nombre":"Fonseca","dep":"La Guajira","pobVenMun":8842,"porcentRegularMun":86.88991,"porcentAfiliadDep":53,"valorRank":665,"valorIndice":59.64509,"encuestado":true,"latitud":10.83333,"longitud":-72.83333,"poblacionTotal":40852},{"id":366,"nombre":"Cubará","dep":"Boyacá","pobVenMun":505,"porcentRegularMun":94.75679,"porcentAfiliadDep":51,"valorRank":664,"valorIndice":59.65199,"encuestado":false,"latitud":6.88556,"longitud":-72.19,"poblacionTotal":10164},{"id":367,"nombre":"Guayatá","dep":"Boyacá","pobVenMun":46,"porcentRegularMun":94.75679,"porcentAfiliadDep":51,"valorRank":663,"valorIndice":59.70229,"encuestado":false,"latitud":4.9681569,"longitud":-73.4952484,"poblacionTotal":3112},{"id":368,"nombre":"Zona Bananera","dep":"Magdalena","pobVenMun":2828,"porcentRegularMun":91.36410000000001,"porcentAfiliadDep":51,"valorRank":662,"valorIndice":59.75124,"encuestado":false,"latitud":10.76417,"longitud":-74.15722,"poblacionTotal":66802},{"id":369,"nombre":"Pajarito","dep":"Boyacá","pobVenMun":102,"porcentRegularMun":94.75679,"porcentAfiliadDep":51,"valorRank":661,"valorIndice":59.80607,"encuestado":false,"latitud":5.34751,"longitud":-72.72075,"poblacionTotal":1941},{"id":370,"nombre":"Chaguaní","dep":"Cundinamarca","pobVenMun":86,"porcentRegularMun":91.81374,"porcentAfiliadDep":49,"valorRank":660,"valorIndice":59.83144,"encuestado":false,"latitud":4.94554,"longitud":-74.65954,"poblacionTotal":3323},{"id":371,"nombre":"San Pedro de Urabá","dep":"Antioquia","pobVenMun":149,"porcentRegularMun":83.41248999999999,"porcentAfiliadDep":56,"valorRank":659,"valorIndice":59.87016,"encuestado":false,"latitud":8.27515,"longitud":-76.37641,"poblacionTotal":30527},{"id":372,"nombre":"Santa Marta","dep":"Magdalena","pobVenMun":59833,"porcentRegularMun":91.36410000000001,"porcentAfiliadDep":51,"valorRank":658,"valorIndice":59.87777,"encuestado":true,"latitud":11.24079,"longitud":-74.19904,"poblacionTotal":479853},{"id":373,"nombre":"Cajicá","dep":"Cundinamarca","pobVenMun":4379,"porcentRegularMun":91.81374,"porcentAfiliadDep":49,"valorRank":657,"valorIndice":59.8816,"encuestado":false,"latitud":4.9167,"longitud":-74.0333,"poblacionTotal":81111},{"id":374,"nombre":"Gutiérrez","dep":"Cundinamarca","pobVenMun":177,"porcentRegularMun":91.81374,"porcentAfiliadDep":49,"valorRank":656,"valorIndice":59.95115,"encuestado":false,"latitud":4.25,"longitud":-74,"poblacionTotal":3311},{"id":375,"nombre":"Guayabetal","dep":"Cundinamarca","pobVenMun":175,"porcentRegularMun":91.81374,"porcentAfiliadDep":49,"valorRank":655,"valorIndice":59.95888,"encuestado":false,"latitud":4.17508,"longitud":-73.88117,"poblacionTotal":5809},{"id":376,"nombre":"Arenal","dep":"Bolívar","pobVenMun":309,"porcentRegularMun":89.36557,"porcentAfiliadDep":67,"valorRank":654,"valorIndice":60.03876,"encuestado":false,"latitud":8.34173,"longitud":-74.10584,"poblacionTotal":7169},{"id":377,"nombre":"Sibaté","dep":"Cundinamarca","pobVenMun":1218,"porcentRegularMun":91.81374,"porcentAfiliadDep":49,"valorRank":653,"valorIndice":60.06124,"encuestado":false,"latitud":4.4491,"longitud":-74.28287,"poblacionTotal":32803},{"id":378,"nombre":"San Cristóbal","dep":"Bolívar","pobVenMun":410,"porcentRegularMun":89.36557,"porcentAfiliadDep":67,"valorRank":652,"valorIndice":60.10191,"encuestado":false,"latitud":6.09869,"longitud":-74.15038,"poblacionTotal":7454},{"id":379,"nombre":"Florencia","dep":"Caquetá","pobVenMun":1010,"porcentRegularMun":100,"porcentAfiliadDep":48,"valorRank":651,"valorIndice":60.17439,"encuestado":false,"latitud":1.61438,"longitud":-75.60623,"poblacionTotal":156789},{"id":380,"nombre":"Sonsón","dep":"Antioquia","pobVenMun":1236,"porcentRegularMun":83.41248999999999,"porcentAfiliadDep":56,"valorRank":650,"valorIndice":60.20703,"encuestado":false,"latitud":5.75,"longitud":-75,"poblacionTotal":31861},{"id":381,"nombre":"Landázuri","dep":"Santander","pobVenMun":103,"porcentRegularMun":93.16243,"porcentAfiliadDep":54,"valorRank":649,"valorIndice":60.24789,"encuestado":false,"latitud":6.30654,"longitud":-73.85134,"poblacionTotal":9238},{"id":382,"nombre":"Versalles","dep":"Valle del Cauca","pobVenMun":89,"porcentRegularMun":95.45337,"porcentAfiliadDep":62,"valorRank":648,"valorIndice":60.27176,"encuestado":false,"latitud":4.66335,"longitud":-76.24649,"poblacionTotal":6233},{"id":383,"nombre":"Sesquilé","dep":"Cundinamarca","pobVenMun":579,"porcentRegularMun":91.81374,"porcentAfiliadDep":49,"valorRank":647,"valorIndice":60.3091,"encuestado":false,"latitud":5.0453,"longitud":-73.7972,"poblacionTotal":11067},{"id":384,"nombre":"Fúquene","dep":"Cundinamarca","pobVenMun":153,"porcentRegularMun":91.81374,"porcentAfiliadDep":49,"valorRank":646,"valorIndice":60.37081,"encuestado":false,"latitud":5.41667,"longitud":-73.8,"poblacionTotal":4849},{"id":385,"nombre":"Los Córdobas","dep":"Córdoba","pobVenMun":71,"porcentRegularMun":93.37863,"porcentAfiliadDep":56,"valorRank":645,"valorIndice":60.42808,"encuestado":false,"latitud":8.87172,"longitud":-76.29087,"poblacionTotal":15886},{"id":386,"nombre":"Pijao","dep":"Quindío","pobVenMun":390,"porcentRegularMun":94.08846,"porcentAfiliadDep":72,"valorRank":644,"valorIndice":60.48294,"encuestado":false,"latitud":4.33333,"longitud":-75.66667,"poblacionTotal":4877},{"id":387,"nombre":"Padilla","dep":"Cauca","pobVenMun":218,"porcentRegularMun":98.07932000000001,"porcentAfiliadDep":59,"valorRank":643,"valorIndice":60.49752,"encuestado":false,"latitud":3.19971,"longitud":-76.35689,"poblacionTotal":8763},{"id":388,"nombre":"Giraldo","dep":"Antioquia","pobVenMun":156,"porcentRegularMun":83.41248999999999,"porcentAfiliadDep":56,"valorRank":642,"valorIndice":60.51522,"encuestado":false,"latitud":6.66667,"longitud":-75.91667,"poblacionTotal":5057},{"id":389,"nombre":"Salazar","dep":"Norte de Santander","pobVenMun":367,"porcentRegularMun":78.34398999999999,"porcentAfiliadDep":35,"valorRank":641,"valorIndice":60.53756,"encuestado":false,"latitud":7.8,"longitud":-72.83333,"poblacionTotal":8768},{"id":390,"nombre":"Puerto Nare","dep":"Antioquia","pobVenMun":66,"porcentRegularMun":83.41248999999999,"porcentAfiliadDep":56,"valorRank":640,"valorIndice":60.64883,"encuestado":false,"latitud":6.19167,"longitud":-74.5867,"poblacionTotal":12161},{"id":391,"nombre":"Tamalameque","dep":"Cesar","pobVenMun":421,"porcentRegularMun":91.28079,"porcentAfiliadDep":55,"valorRank":639,"valorIndice":60.67591,"encuestado":false,"latitud":8.86422,"longitud":-73.78106,"poblacionTotal":14063},{"id":392,"nombre":"Riohacha","dep":"La Guajira","pobVenMun":47893,"porcentRegularMun":86.88991,"porcentAfiliadDep":53,"valorRank":638,"valorIndice":60.69247,"encuestado":true,"latitud":11.54444,"longitud":-72.90722,"poblacionTotal":177573},{"id":393,"nombre":"Maicao","dep":"La Guajira","pobVenMun":69624,"porcentRegularMun":86.88991,"porcentAfiliadDep":53,"valorRank":637,"valorIndice":60.6967,"encuestado":false,"latitud":11.33333,"longitud":-72.33333,"poblacionTotal":159223},{"id":394,"nombre":"Yondó","dep":"Antioquia","pobVenMun":370,"porcentRegularMun":83.41248999999999,"porcentAfiliadDep":56,"valorRank":636,"valorIndice":60.72018,"encuestado":false,"latitud":6.90738,"longitud":-74.17686,"poblacionTotal":17597},{"id":395,"nombre":"Montecristo","dep":"Bolívar","pobVenMun":233,"porcentRegularMun":89.36557,"porcentAfiliadDep":67,"valorRank":635,"valorIndice":60.7397,"encuestado":false,"latitud":7.99565,"longitud":-74.45816,"poblacionTotal":13470},{"id":396,"nombre":"Viracachá","dep":"Boyacá","pobVenMun":6,"porcentRegularMun":94.75679,"porcentAfiliadDep":51,"valorRank":634,"valorIndice":60.76075,"encuestado":false,"latitud":5.4370275,"longitud":-73.2990244,"poblacionTotal":2582},{"id":397,"nombre":"Rondón","dep":"Boyacá","pobVenMun":4,"porcentRegularMun":94.75679,"porcentAfiliadDep":51,"valorRank":634,"valorIndice":60.76075,"encuestado":false,"latitud":5.41667,"longitud":-73.16667,"poblacionTotal":2230},{"id":398,"nombre":"Pasca","dep":"Cundinamarca","pobVenMun":124,"porcentRegularMun":91.81374,"porcentAfiliadDep":49,"valorRank":633,"valorIndice":60.82072,"encuestado":false,"latitud":4.33333,"longitud":-74.28333,"poblacionTotal":8686},{"id":399,"nombre":"Santana","dep":"Boyacá","pobVenMun":697,"porcentRegularMun":94.75679,"porcentAfiliadDep":51,"valorRank":632,"valorIndice":60.86554,"encuestado":false,"latitud":6.0560419,"longitud":-73.4849311,"poblacionTotal":6826},{"id":400,"nombre":"San Juan de Urabá","dep":"Antioquia","pobVenMun":251,"porcentRegularMun":83.41248999999999,"porcentAfiliadDep":56,"valorRank":631,"valorIndice":60.8841,"encuestado":false,"latitud":8.75924,"longitud":-76.52969,"poblacionTotal":19992},{"id":401,"nombre":"El Guacamayo","dep":"Santander","pobVenMun":14,"porcentRegularMun":93.16243,"porcentAfiliadDep":54,"valorRank":630,"valorIndice":60.95115,"encuestado":false,"latitud":6.24856,"longitud":-73.52957,"poblacionTotal":1643},{"id":402,"nombre":"Ariguaní","dep":"Magdalena","pobVenMun":286,"porcentRegularMun":91.36410000000001,"porcentAfiliadDep":51,"valorRank":629,"valorIndice":60.95412,"encuestado":false,"latitud":9.89383,"longitud":-74.13583,"poblacionTotal":28348},{"id":403,"nombre":"Tena","dep":"Cundinamarca","pobVenMun":269,"porcentRegularMun":91.81374,"porcentAfiliadDep":49,"valorRank":628,"valorIndice":60.96736,"encuestado":false,"latitud":4.64863,"longitud":-74.39924,"poblacionTotal":8072},{"id":404,"nombre":"Sogamoso","dep":"Boyacá","pobVenMun":5321,"porcentRegularMun":94.75679,"porcentAfiliadDep":51,"valorRank":627,"valorIndice":60.98494,"encuestado":false,"latitud":5.71434,"longitud":-72.93391,"poblacionTotal":120462},{"id":405,"nombre":"Barbosa","dep":"Santander","pobVenMun":1849,"porcentRegularMun":93.16243,"porcentAfiliadDep":54,"valorRank":626,"valorIndice":61.04256,"encuestado":false,"latitud":5.9516,"longitud":-73.63726,"poblacionTotal":28769},{"id":406,"nombre":"Tipacoque","dep":"Boyacá","pobVenMun":83,"porcentRegularMun":94.75679,"porcentAfiliadDep":51,"valorRank":625,"valorIndice":61.05406,"encuestado":false,"latitud":6.418668,"longitud":-72.6962193,"poblacionTotal":3154},{"id":407,"nombre":"El Colegio","dep":"Cundinamarca","pobVenMun":673,"porcentRegularMun":91.81374,"porcentAfiliadDep":49,"valorRank":624,"valorIndice":61.09079,"encuestado":false,"latitud":4.58333,"longitud":-74.45,"poblacionTotal":22775},{"id":408,"nombre":"Pedraza","dep":"Magdalena","pobVenMun":32,"porcentRegularMun":91.36410000000001,"porcentAfiliadDep":51,"valorRank":623,"valorIndice":61.11094,"encuestado":false,"latitud":10.189801,"longitud":-74.914848,"poblacionTotal":7569},{"id":409,"nombre":"Pueblorrico","dep":"Antioquia","pobVenMun":21,"porcentRegularMun":83.41248999999999,"porcentAfiliadDep":56,"valorRank":622,"valorIndice":61.14507,"encuestado":false,"latitud":5.794289,"longitud":-75.840504,"poblacionTotal":7202},{"id":410,"nombre":"Bolívar","dep":"Valle del Cauca","pobVenMun":227,"porcentRegularMun":95.45337,"porcentAfiliadDep":62,"valorRank":621,"valorIndice":61.14972,"encuestado":false,"latitud":4.33333,"longitud":-76.33333,"poblacionTotal":13954},{"id":411,"nombre":"Ciudad Bolívar","dep":"Antioquia","pobVenMun":540,"porcentRegularMun":83.41248999999999,"porcentAfiliadDep":56,"valorRank":620,"valorIndice":61.18147,"encuestado":false,"latitud":5.851409,"longitud":-76.025339,"poblacionTotal":23361},{"id":412,"nombre":"Trinidad","dep":"Casanare","pobVenMun":592,"porcentRegularMun":94.85341000000001,"porcentAfiliadDep":53,"valorRank":619,"valorIndice":61.20597,"encuestado":false,"latitud":5.34778,"longitud":-71.20194,"poblacionTotal":11734},{"id":413,"nombre":"Valle de San José","dep":"Santander","pobVenMun":805,"porcentRegularMun":93.16243,"porcentAfiliadDep":54,"valorRank":618,"valorIndice":61.2211,"encuestado":false,"latitud":6.4338988,"longitud":-73.1556587,"poblacionTotal":5648},{"id":414,"nombre":"Chimichagua","dep":"Cesar","pobVenMun":526,"porcentRegularMun":91.28079,"porcentAfiliadDep":55,"valorRank":617,"valorIndice":61.23283,"encuestado":false,"latitud":9.33333,"longitud":-73.83333,"poblacionTotal":30289},{"id":415,"nombre":"Valledupar","dep":"Cesar","pobVenMun":38862,"porcentRegularMun":91.28079,"porcentAfiliadDep":55,"valorRank":616,"valorIndice":61.23769,"encuestado":true,"latitud":10.46314,"longitud":-73.25322,"poblacionTotal":459349},{"id":416,"nombre":"Duitama","dep":"Boyacá","pobVenMun":3746,"porcentRegularMun":94.75679,"porcentAfiliadDep":51,"valorRank":615,"valorIndice":61.33265,"encuestado":false,"latitud":5.8245,"longitud":-73.03408,"poblacionTotal":117606},{"id":417,"nombre":"La Belleza","dep":"Santander","pobVenMun":59,"porcentRegularMun":93.16243,"porcentAfiliadDep":54,"valorRank":614,"valorIndice":61.36039,"encuestado":false,"latitud":5.89014,"longitud":-74.03839,"poblacionTotal":5505},{"id":418,"nombre":"Fusagasugá","dep":"Cundinamarca","pobVenMun":4373,"porcentRegularMun":91.81374,"porcentAfiliadDep":49,"valorRank":613,"valorIndice":61.39572,"encuestado":false,"latitud":4.33646,"longitud":-74.36378,"poblacionTotal":134658},{"id":419,"nombre":"Regidor","dep":"Bolívar","pobVenMun":130,"porcentRegularMun":89.36557,"porcentAfiliadDep":67,"valorRank":612,"valorIndice":61.41645,"encuestado":false,"latitud":8.72229,"longitud":-73.84891,"poblacionTotal":5335},{"id":420,"nombre":"Panqueba","dep":"Boyacá","pobVenMun":37,"porcentRegularMun":94.75679,"porcentAfiliadDep":51,"valorRank":611,"valorIndice":61.41872,"encuestado":false,"latitud":6.4431144,"longitud":-72.4615374,"poblacionTotal":1644},